[
  {
    "location": "attapur",
    "lat": 17.3767325,
    "lng": 78.4296535
  },
  {
    "location": "bachupally",
    "lat": 17.5513353,
    "lng": 78.3855189
  },
  {
    "location": "uppal",
    "lat": 17.3983774,
    "lng": 78.5582652
  },
  {
    "location": "bandlaguda",
    "lat": 17.3629719,
    "lng": 78.3943263
  },
  {
    "location": "chanda nagar",
    "lat": 17.4934113,
    "lng": 78.32779479999999
  },
  {
    "location": "Gachibowli Hyderabad",
    "lat": 17.4400802,
    "lng": 78.3489168
  },
  {
    "location": "HSR Layout Bangalore",
    "lat": 12.9121181,
    "lng": 77.6445548
  },
  {
    "location": "Whitefield Bangalore",
    "lat": 12.9698196,
    "lng": 77.7499721
  },
  {
    "location": "Electronic City Bangalore",
    "lat": 17.406498,
    "lng": 78.47724389999999
  },
  {
    "location": "Hayathnagar, Hyderabad",
    "lat": 17.3270709,
    "lng": 78.6053386
  },
  {
    "location": "Badangpet, Balapur, South Hyderabad, Hyderabad",
    "lat": 17.308902,
    "lng": 78.520836
  },
  {
    "location": "Survey No.317 Part & 327 Part, At Maheshwaram, South Hyderabad, Hyderabad",
    "lat": 17.5629233,
    "lng": 78.3751566
  },
  {
    "location": "Beside PMR Medical College, Main Road, Chevella, Hyderabad, Telangana, India. ",
    "lat": 17.3053357,
    "lng": 78.1486429
  },
  {
    "location": "Athvelly, Medchal, Secunderabad",
    "lat": 17.6482378,
    "lng": 78.4908221
  },
  {
    "location": "Kollur, Hyderabad",
    "lat": 17.4435941,
    "lng": 78.2508532
  },
  {
    "location": ": Brahmanapally near Sagar road with Turkayamjal near LB Nagar",
    "lat": 17.341801,
    "lng": 78.547522
  },
  {
    "location": "Patancheru, Hyderabad, Telangana, 502319. ",
    "lat": 17.5287427,
    "lng": 78.266725
  },
  {
    "location": "Beeramguda, Near Patancheru, West Hyderabad, Hyderabad",
    "lat": 17.518468,
    "lng": 78.3038449
  },
  {
    "location": "Gagillapur, North Hyderabad, Hyderabad",
    "lat": 17.6127536,
    "lng": 78.3894284
  },
  {
    "location": "Bachupally, Hyderabad",
    "lat": 17.5513353,
    "lng": 78.3855189
  },
  {
    "location": "Thallapally, Shabad, West Hyderabad, Hyderabad",
    "lat": 17.406498,
    "lng": 78.47724389999999
  },
  {
    "location": "Petbasheerabad, Hyderabad",
    "lat": 17.5167023,
    "lng": 78.4757415
  },
  {
    "location": "Gudoor, Hyderabad",
    "lat": 17.4212596,
    "lng": 78.3955022
  },
  {
    "location": "Uppal Kalan, East Hyderabad, Hyderabad",
    "lat": 17.3983774,
    "lng": 78.5582652
  },
  {
    "location": "Survey No.621,622,623 & 624/p, At Mankal, Maheshwaram, South Hyderabad, Hyderabad",
    "lat": 17.5629233,
    "lng": 78.3751566
  },
  {
    "location": "Peeranchuruvu, Hyderabad",
    "lat": 17.3585811,
    "lng": 78.3773928
  },
  {
    "location": "Puttulaguda, Nagole, Uppal Kalan, East Hyderabad, Uppal Kalan",
    "lat": 17.3716053,
    "lng": 78.5809891
  },
  {
    "location": "Pragathi Nagar, Hyderabad",
    "lat": 17.5186369,
    "lng": 78.3962529
  },
  {
    "location": "Pulimamidi, Hyderabad",
    "lat": 17.3932756,
    "lng": 78.5411759
  },
  {
    "location": "Tellapur, Hyderabad",
    "lat": 17.463172,
    "lng": 78.2864815
  },
  {
    "location": "Ahmedguda, Hyderabad",
    "lat": 17.5131054,
    "lng": 78.59731
  },
  {
    "location": "342/1 & 343, Opp. Chaitanya College, Narsingi Mehdipatnam Main Road, Narsingi, West Hyderabad, Hyderabad",
    "lat": 17.384205,
    "lng": 78.3620203
  },
  {
    "location": "Ghatkesar, Pocharam, East Hyderabad, Hyderabad",
    "lat": 17.4248522,
    "lng": 78.6448085
  },
  {
    "location": "Vanastalihills, Tattikhana, Nawab Saheb Kunta, East Hyderabad, Hyderabad",
    "lat": 17.3286097,
    "lng": 78.44932759999999
  },
  {
    "location": "Narepally, Hyderabad",
    "lat": 17.4293729,
    "lng": 78.6137993
  },
  {
    "location": "Subhanpur, Hyderabad",
    "lat": 17.406498,
    "lng": 78.47724389999999
  },
  {
    "location": "Ameenpur, Hyderabad",
    "lat": 17.5171428,
    "lng": 78.315742
  },
  {
    "location": "Turkayamjal, Hyderabad",
    "lat": 17.27139,
    "lng": 78.5781119
  },
  {
    "location": "Nallagandla Gachibowli, West Hyderabad, Hyderabad",
    "lat": 17.4747785,
    "lng": 78.3102918
  },
  {
    "location": "Nallagandla, Hyderabad, Telangana, INDIA.",
    "lat": 17.4677443,
    "lng": 78.3112493
  },
  {
    "location": "Osman Nagar, Hyderabad",
    "lat": 17.4415837,
    "lng": 78.2785379
  },
  {
    "location": "Munganoor, Hyderabad",
    "lat": 17.3026602,
    "lng": 78.610081
  },
  {
    "location": "Uppal, Hyderabad",
    "lat": 17.3983774,
    "lng": 78.5582652
  },
  {
    "location": "Dundigal Gandimaisamma, Kompally, North Hyderabad, Hyderabad",
    "lat": 17.5752184,
    "lng": 78.4232303
  },
  {
    "location": "Shankarpalli, Mokila, West Hyderabad, Hyderabad",
    "lat": 17.4551243,
    "lng": 78.13150639999999
  },
  {
    "location": "Kukatpally, Hyderabad",
    "lat": 17.4875418,
    "lng": 78.3953462
  },
  {
    "location": "Maheshwaram, Hyderabad",
    "lat": 17.5629233,
    "lng": 78.3751566
  },
  {
    "location": "Maheshwaram, South Hyderabad, Hyderabad",
    "lat": 17.4358539,
    "lng": 78.2999004
  },
  {
    "location": "Malkajgiri, Hyderabad",
    "lat": 17.4503375,
    "lng": 78.53224809999999
  },
  {
    "location": "Hafeezpet, Hyderabad",
    "lat": 17.4841683,
    "lng": 78.3602942
  },
  {
    "location": "Adj Orr Service Road, Narsingi, West Hyderabad, Hyderabad",
    "lat": 17.4123514,
    "lng": 78.3014811
  },
  {
    "location": "Kokapet, Narsingi, West Hyderabad, Hyderabad",
    "lat": 17.3968106,
    "lng": 78.33479609999999
  },
  {
    "location": "Chennaram, Hyderabad",
    "lat": 17.3096418,
    "lng": 78.5567284
  },
  {
    "location": "Near Kadthal Junction, Chennaram, Kadthal, Hyderabad, Telangana, India.",
    "lat": 16.983683,
    "lng": 78.50076570000002
  },
  {
    "location": "Sanath Nagar, Hyderabad",
    "lat": 17.4562544,
    "lng": 78.4439295
  },
  {
    "location": "Brindavan Colony, Saroor Nagar, South Hyderabad, Hyderabad Price on Request Contact Developer",
    "lat": 17.3506642,
    "lng": 78.5334307
  },
  {
    "location": "Mokila, West Hyderabad, Hyderabad",
    "lat": 17.4393361,
    "lng": 78.1849427
  },
  {
    "location": "Yapral, Hyderabad",
    "lat": 17.5040231,
    "lng": 78.53992099999999
  },
  {
    "location": "Jammigadda, Suryapet",
    "lat": 17.406498,
    "lng": 78.47724389999999
  },
  {
    "location": "Kompally, Hyderabad",
    "lat": 17.5366218,
    "lng": 78.4844811
  },
  {
    "location": "Alkapur Twp, Narsingi, West Hyderabad, Hyderabad",
    "lat": 17.3869595,
    "lng": 78.3692899
  },
  {
    "location": "Giniyarpally, Hyderabad",
    "lat": 17.406498,
    "lng": 78.47724389999999
  },
  {
    "location": "Kondapur, Hyderabad",
    "lat": 17.4700319,
    "lng": 78.3534174
  },
  {
    "location": "Kondapur, West Hyderabad, Hyderabad",
    "lat": 17.4700319,
    "lng": 78.3534174
  },
  {
    "location": "Alkapur Township, Manikonda, Hyderabad, Telangana, India.",
    "lat": 17.3869595,
    "lng": 78.3692899
  },
  {
    "location": "Manikonda, Hyderabad",
    "lat": 17.4062155,
    "lng": 78.3763486
  },
  {
    "location": "Kollur, West Hyderabad, Hyderabad",
    "lat": 17.4435941,
    "lng": 78.2508532
  },
  {
    "location": "Shamshabad, West Hyderabad, Hyderabad",
    "lat": 17.2619301,
    "lng": 78.387971
  },
  {
    "location": "Isnapur, Hyderabad",
    "lat": 17.546631,
    "lng": 78.2131398
  },
  {
    "location": "Osman Nagar, West Hyderabad, Hyderabad",
    "lat": 17.4415837,
    "lng": 78.2785379
  },
  {
    "location": "Dundigal, North Hyderabad, Hyderabad",
    "lat": 17.6351238,
    "lng": 78.4022158
  },
  {
    "location": "Medchal, Hyderabad",
    "lat": 17.6323358,
    "lng": 78.48048279999999
  },
  {
    "location": "Chevalla, Hyderabad",
    "lat": 17.406498,
    "lng": 78.47724389999999
  },
  {
    "location": "Miyapur, Hyderabad",
    "lat": 17.5169014,
    "lng": 78.3428304
  },
  {
    "location": "Chatanpally Village, Shadnagar, Hyderabad",
    "lat": 17.0712949,
    "lng": 78.2058966
  },
  {
    "location": "Bachupally, North Hyderabad, Hyderabad",
    "lat": 17.5513353,
    "lng": 78.3855189
  },
  {
    "location": "Kadthal, Hyderabad",
    "lat": 17.406498,
    "lng": 78.47724389999999
  },
  {
    "location": "Tukkuguda, Hyderabad",
    "lat": 17.2090762,
    "lng": 78.4761307
  },
  {
    "location": "Miyapur, North Hyderabad, Hyderabad",
    "lat": 17.5169014,
    "lng": 78.3428304
  },
  {
    "location": "Baghmankhal, Maheswaram, near ORR Exit No:14, Hyderabad, Telangana, India. ",
    "lat": 17.4384021,
    "lng": 78.3637265
  },
  {
    "location": "Plot No. Of Site 0, At Krishnareddypet, Patancheru, Kollur, West Hyderabad, Hyderabad",
    "lat": 17.5358625,
    "lng": 78.29032389999999
  },
  {
    "location": "Kollur, Hyderabad, Telangana, India",
    "lat": 17.4435941,
    "lng": 78.2508532
  },
  {
    "location": "Patancheru, West Hyderabad, Hyderabad",
    "lat": 17.5287427,
    "lng": 78.266725
  },
  {
    "location": "Hitech City, Hyderabad",
    "lat": 17.4434646,
    "lng": 78.3771953
  },
  {
    "location": "Shankarpalli, Hyderabad",
    "lat": 17.4551243,
    "lng": 78.13150639999999
  },
  {
    "location": "Gopanpally, Medak",
    "lat": 17.451398,
    "lng": 78.30924259999999
  },
  {
    "location": "Kandukur, Hyderabad",
    "lat": 17.406498,
    "lng": 78.47724389999999
  },
  {
    "location": "Shadnagar, Hyderabad",
    "lat": 17.406498,
    "lng": 78.47724389999999
  },
  {
    "location": "Meerpet, Hyderabad",
    "lat": 17.3227982,
    "lng": 78.5280016
  },
  {
    "location": "Saroor Nagar, Hyderabad",
    "lat": 17.3529457,
    "lng": 78.5356595
  },
  {
    "location": "Pathakota, Wanaparthy",
    "lat": 17.406498,
    "lng": 78.47724389999999
  },
  {
    "location": "Jeedimetla, Hyderabad",
    "lat": 17.5196968,
    "lng": 78.4586419
  },
  {
    "location": "S D Road, Hyderabad",
    "lat": 17.4403009,
    "lng": 78.4955827
  },
  {
    "location": "Bandlaguda Jagir, West Hyderabad, Hyderabad",
    "lat": 17.3629719,
    "lng": 78.3943263
  },
  {
    "location": "Kukatpally, North Hyderabad, Hyderabad",
    "lat": 17.4875418,
    "lng": 78.3953462
  },
  {
    "location": "Plot No. 27/b and 28 of Survey No.98 and 99 situated at Thumkunta, Shamirpet, Secunderabad",
    "lat": 17.5630201,
    "lng": 78.55581380000001
  },
  {
    "location": "Adibatla, South Hyderabad, Hyderabad",
    "lat": 17.2335311,
    "lng": 78.54255429999999
  },
  {
    "location": "Medchal, Gowdavelly, North Hyderabad, Hyderabad",
    "lat": 17.6117603,
    "lng": 78.4652483
  },
  {
    "location": "Nagireddipalli, Maheshwaram, South Hyderabad, Hyderabad",
    "lat": 17.4358539,
    "lng": 78.2999004
  },
  {
    "location": "Bhairkhanpally, Shadnagar, Hyderabad",
    "lat": 17.406498,
    "lng": 78.47724389999999
  },
  {
    "location": "Mithila Nagar, Gajula Ramaram, North Hyderabad, Hyderabad",
    "lat": 17.5349627,
    "lng": 78.4022446
  },
  {
    "location": "Moti Nagar, North Hyderabad, Hyderabad",
    "lat": 17.4492116,
    "lng": 78.41820489999999
  },
  {
    "location": "Erragadda Road, Erragadda, North Hyderabad, Hyderabad",
    "lat": 17.4490989,
    "lng": 78.4326834
  },
  {
    "location": "Kundel Kunta Thanda Gram, Burgula, Hyderabad",
    "lat": 17.406498,
    "lng": 78.47724389999999
  },
  {
    "location": "Bolarum, Hyderabad",
    "lat": 17.5217602,
    "lng": 78.510961
  },
  {
    "location": "Gopanpally, Hyderabad",
    "lat": 17.4357962,
    "lng": 78.3012566
  },
  {
    "location": "Plot No. Of Site 01076/4/2/nr (Part), At Pet Basherbad, Quthbullapur, North Hyderabad, Hyderabad",
    "lat": 17.5171685,
    "lng": 78.4744154
  },
  {
    "location": "Near Bollaram Road, Sri Rangapuram Colony, Miyapur, Hyderabad, Telangana, India. ",
    "lat": 17.5049427,
    "lng": 78.3621927
  },
  {
    "location": "Survey No. 106, 107, next to Sancta Maria International School, Seriliingampally, North Hyderabad, Hyderabad\r",
    "lat": 17.4823207,
    "lng": 78.3194249
  },
  {
    "location": "Kondapur, Serlingampally, West Hyderabad",
    "lat": 17.4812834,
    "lng": 78.3408184
  },
  {
    "location": "Puppalaguda, West Hyderabad, Hyderabad",
    "lat": 17.3982116,
    "lng": 78.3748513
  },
  {
    "location": "Madina Guda, Miyapur, North Hyderabad, Hyderabad",
    "lat": 17.5003592,
    "lng": 78.3387007
  },
  {
    "location": "Gajulramaram Kukatpally, North Hyderabad, Hyderabad",
    "lat": 17.5184307,
    "lng": 78.4357394
  },
  {
    "location": "Mamidpally, Hyderabad",
    "lat": 17.2595568,
    "lng": 78.4227444
  },
  {
    "location": "Suchitra, Kompally, North Hyderabad, North Hyderabad, Hyderabad",
    "lat": 17.5006234,
    "lng": 78.4738059
  },
  {
    "location": "Dulapally, North Hyderabad, Kaziguda",
    "lat": 17.5466066,
    "lng": 78.4667757
  },
  {
    "location": "Annojiguda, Ghatkesar, East Hyderabad, Hyderabad",
    "lat": 17.4359044,
    "lng": 78.6622155
  },
  {
    "location": "Chandanagar, North Hyderabad, Hyderabad",
    "lat": 17.4934113,
    "lng": 78.32779479999999
  },
  {
    "location": "Serilingampally, Hyderabad",
    "lat": 17.4836979,
    "lng": 78.3158338
  },
  {
    "location": "Dulapally, Kompally, North Hyderabad, Hyderabad",
    "lat": 17.5466066,
    "lng": 78.4667757
  },
  {
    "location": "Ramakrishnapuram, Hyderabad",
    "lat": 17.3656014,
    "lng": 78.55259869999999
  },
  {
    "location": "Kowkoor, Hyderabad",
    "lat": 17.5256896,
    "lng": 78.536222
  },
  {
    "location": "Kokapet, West Hyderabad, Hyderabad",
    "lat": 17.3968106,
    "lng": 78.33479609999999
  },
  {
    "location": "DMR Ventures",
    "lat": 17.3960529,
    "lng": 78.51246429999999
  },
  {
    "location": "Kachiguda, Hyderabad",
    "lat": 17.3900857,
    "lng": 78.49333519999999
  },
  {
    "location": "Chegur, West Hyderabad, Hyderabad",
    "lat": 17.175826,
    "lng": 78.2291018
  },
  {
    "location": "Adibatla, Hyderabad",
    "lat": 17.2335311,
    "lng": 78.54255429999999
  },
  {
    "location": "Nallagandla Gachibowli, North Hyderabad, Hyderabad",
    "lat": 17.4747785,
    "lng": 78.3102918
  },
  {
    "location": "Gandipet, West Hyderabad, Hyderabad",
    "lat": 17.3806863,
    "lng": 78.3244788
  },
  {
    "location": "1239, 6-3, 1/B, Raj Bhavan Rd, Somajiguda, North Hyderabad",
    "lat": 17.4261242,
    "lng": 78.45670009999999
  },
  {
    "location": "Kokapet, Hyderabad",
    "lat": 17.3968106,
    "lng": 78.33479609999999
  },
  {
    "location": "Daakshayani Infrastructures",
    "lat": 17.406498,
    "lng": 78.47724389999999
  },
  {
    "location": "Jubilee Hills, Hyderabad",
    "lat": 17.4325894,
    "lng": 78.4070691
  },
  {
    "location": "Survey No. 612 To 619, Plot No. Of Site. 1, At Kapra, Hyderabad",
    "lat": 17.4885251,
    "lng": 78.5681716
  },
  {
    "location": "Banjara Hills, Hyderabad",
    "lat": 17.416889,
    "lng": 78.43867
  },
  {
    "location": "Gayathri Nagar, Jeedimetla, North Hyderabad, Hyderabad",
    "lat": 17.5060549,
    "lng": 78.4715532
  },
  {
    "location": "Survey No.229, Plot No Of Site. 640, At Hayathnagar, South Hyderabad, Hyderabad",
    "lat": 17.3270709,
    "lng": 78.6053386
  },
  {
    "location": "Meerkhanpet,On 200 Feet Kandukur, Yecharam Road, Srisailam Highway, Kandukur, South Hyderabad, Hyderabad",
    "lat": 17.1385094,
    "lng": 78.4784256
  },
  {
    "location": "Yacharam, South Hyderabad, Hyderabad",
    "lat": 17.4358539,
    "lng": 78.2999004
  },
  {
    "location": "Alwal, Hyderabad",
    "lat": 17.4966878,
    "lng": 78.506663
  },
  {
    "location": "Puppalaguda, Hyderabad",
    "lat": 17.3982116,
    "lng": 78.3748513
  },
  {
    "location": "Kompally, Gundlapochampally, North Hyderabad, Hyderabad",
    "lat": 17.5670553,
    "lng": 78.4773215
  },
  {
    "location": "11/B, Bandlaguda Jagir, West Hyderabad, Hyderabad",
    "lat": 17.3373663,
    "lng": 78.3902591
  },
  {
    "location": "Patancheru, North Hyderabad, Hyderabad",
    "lat": 17.5287427,
    "lng": 78.266725
  },
  {
    "location": "Peerzadiguda, Hyderabad",
    "lat": 17.3990571,
    "lng": 78.6098059
  },
  {
    "location": "Hafeezpet, North Hyderabad, Hyderabad",
    "lat": 17.4841683,
    "lng": 78.3602942
  },
  {
    "location": "Ameenpur, North Hyderabad, Hyderabad",
    "lat": 17.5171428,
    "lng": 78.315742
  },
  {
    "location": "Saidabad, Hyderabad",
    "lat": 17.3573882,
    "lng": 78.5112407
  },
  {
    "location": "Brundavan Colony, Kompally, Hyderabad",
    "lat": 17.5260154,
    "lng": 78.4936632
  },
  {
    "location": "Amangal, Hyderabad",
    "lat": 17.406498,
    "lng": 78.47724389999999
  },
  {
    "location": "Talakondapalle, Bangaliguda, Hyderabad",
    "lat": 17.3105142,
    "lng": 78.3187871
  },
  {
    "location": "Chukkapur, Hyderabad",
    "lat": 17.406498,
    "lng": 78.47724389999999
  },
  {
    "location": "Alkapoor Township, Puppalaguda, Hyderabad, Telangana, India ",
    "lat": 17.396957,
    "lng": 78.3764948
  },
  {
    "location": "Nizampet, Hyderabad",
    "lat": 17.5196675,
    "lng": 78.3778542
  },
  {
    "location": "Kadthal, South Hyderabad, Hyderabad",
    "lat": 17.4358539,
    "lng": 78.2999004
  },
  {
    "location": "Survey No. 300, Bachupally, North Hyderabad, Hyderabad",
    "lat": 17.5491129,
    "lng": 78.3712709
  },
  {
    "location": "Warangal Highway, Hanamkonda",
    "lat": 17.4013633,
    "lng": 78.5492241
  },
  {
    "location": "Kollur, Tellapur, West Hyderabad,",
    "lat": 17.4445262,
    "lng": 78.2494026
  },
  {
    "location": "Yapral, Secunderabad",
    "lat": 17.5040231,
    "lng": 78.53992099999999
  },
  {
    "location": "Choutuppal, Hyderabad",
    "lat": 17.406498,
    "lng": 78.47724389999999
  },
  {
    "location": "Ameenapur, North Hyderabad, Hyderabad",
    "lat": 17.5171428,
    "lng": 78.315742
  },
  {
    "location": "Meerpet, South Hyderabad, Hyderabad",
    "lat": 17.4358539,
    "lng": 78.2999004
  },
  {
    "location": "Turkapally, Hyderabad",
    "lat": 17.6656219,
    "lng": 78.6039533
  },
  {
    "location": "Kompally, Dulapally, North Hyderabad,",
    "lat": 17.5466066,
    "lng": 78.4667757
  },
  {
    "location": "Gurralapadu, Khammam, Telangana, India",
    "lat": 17.2341813,
    "lng": 80.10307399999999
  },
  {
    "location": "Mallapur, Hyderabad",
    "lat": 17.4464663,
    "lng": 78.5745744
  },
  {
    "location": "Mansoorabad, Hyderabad",
    "lat": 17.3426508,
    "lng": 78.5734931
  },
  {
    "location": "Somaram, Medchal, North Hyderabad, Hyderabad",
    "lat": 17.6773685,
    "lng": 78.5028963
  },
  {
    "location": "Uppal Bhagat, Uppal, East Hyderabad, Hyderabad",
    "lat": 17.3983774,
    "lng": 78.5582652
  },
  {
    "location": "Garrepalli, Karimnagar, Telangana, India",
    "lat": 17.406498,
    "lng": 78.47724389999999
  },
  {
    "location": "Machha Bollaram,Alwal, Hyderabad",
    "lat": 17.5133794,
    "lng": 78.514259
  },
  {
    "location": "Amistapur, Mahabubnagar",
    "lat": 17.406498,
    "lng": 78.47724389999999
  },
  {
    "location": "Kismatpur, West Hyderabad, Hyderabad",
    "lat": 17.3380151,
    "lng": 78.38259939999999
  },
  {
    "location": "Jadcherla, Mahabubnagar",
    "lat": 17.406498,
    "lng": 78.47724389999999
  },
  {
    "location": "Zaheerabad, Hyderabad, Telangana, India.",
    "lat": 17.36776,
    "lng": 78.483025
  },
  {
    "location": "Balanagar, Hyderabad, Telangana, India",
    "lat": 17.4813993,
    "lng": 78.44899350000001
  },
  {
    "location": "Siddipet, Hyderabad",
    "lat": 17.406498,
    "lng": 78.47724389999999
  },
  {
    "location": "Ameenapur, Miyapur, North Hyderabad, Hyderabad",
    "lat": 17.5171428,
    "lng": 78.315742
  },
  {
    "location": "Maddikunta, Sadashivpet",
    "lat": 17.406498,
    "lng": 78.47724389999999
  },
  {
    "location": "Gowdavalli, Hyderabad",
    "lat": 17.6117603,
    "lng": 78.4652483
  },
  {
    "location": "Kompally, North Hyderabad",
    "lat": 17.5366218,
    "lng": 78.4844811
  },
  {
    "location": "Yacharam, Hyderabad",
    "lat": 17.4308087,
    "lng": 78.55954799999999
  },
  {
    "location": "Malakpet, South Hyderabad, Hyderabad",
    "lat": 17.3716458,
    "lng": 78.49097669999999
  },
  {
    "location": "Survey No 141, Kismatpur, West Hyderabad, Hyderabad",
    "lat": 17.3319348,
    "lng": 78.40269099999999
  },
  {
    "location": "Ravindra Nagar, Sadashivpet",
    "lat": 17.6160052,
    "lng": 77.9541739
  },
  {
    "location": "Survey No. 89/p, At Kadthal, South Hyderabad, Hyderabad",
    "lat": 17.4358539,
    "lng": 78.2999004
  },
  {
    "location": "Sangareddy, Hyderabad",
    "lat": 17.6075232,
    "lng": 78.0798191
  },
  {
    "location": "Anantharam, Bhongir, Bhuvanagiri, East Hyderabad, Hyderabad",
    "lat": 17.406498,
    "lng": 78.47724389999999
  },
  {
    "location": "Wadakpally, Hyderabad",
    "lat": 17.5631804,
    "lng": 78.2967288
  },
  {
    "location": "Somaram, Hyderabad",
    "lat": 17.406498,
    "lng": 78.47724389999999
  },
  {
    "location": "Kharmanghat, Hyderabad",
    "lat": 17.3413189,
    "lng": 78.5315546
  },
  {
    "location": "Tukkuguda, South Hyderabad, Hyderabad",
    "lat": 17.4358539,
    "lng": 78.2999004
  },
  {
    "location": "Mytri Vanam, Siddipet",
    "lat": 17.406498,
    "lng": 78.47724389999999
  },
  {
    "location": "Kismatpur, Hyderabad",
    "lat": 17.3380151,
    "lng": 78.38259939999999
  },
  {
    "location": "Dulapally, Near Kompally, North Hyderabad, Hyderabad",
    "lat": 17.5466066,
    "lng": 78.4667757
  },
  {
    "location": "20, Prashant Nagar, IDA Kukatpally, Kukatpally, Hyderabad, Telangana, 500072",
    "lat": 17.4748076,
    "lng": 78.4273559
  },
  {
    "location": "Velimala, West Hyderabad, Hyderabad",
    "lat": 17.4739025,
    "lng": 78.22767759999999
  },
  {
    "location": "Narsingi, Hyderabad, Telangana, India",
    "lat": 17.3876025,
    "lng": 78.3572062
  },
  {
    "location": "Kokapet, West Hyderabad, Hyderabad\r",
    "lat": 17.3968106,
    "lng": 78.33479609999999
  },
  {
    "location": "Chanda Nagar, Hyderabad",
    "lat": 17.4934113,
    "lng": 78.32779479999999
  },
  {
    "location": "TS No 143/A, Bachupally, North Hyderabad, Hyderabad",
    "lat": 17.528727,
    "lng": 78.359741
  },
  {
    "location": "Pocharam, Hyderabad",
    "lat": 17.4248522,
    "lng": 78.6448085
  },
  {
    "location": "Nagole, Hyderabad",
    "lat": 17.3714737,
    "lng": 78.5695016
  },
  {
    "location": "LB Nagar, Hyderabad",
    "lat": 17.3457176,
    "lng": 78.55222959999999
  },
  {
    "location": "Kandi, Hyderabad",
    "lat": 17.5829521,
    "lng": 78.1073601
  },
  {
    "location": "Hafeez Colony, Neknampur, West Hyderabad, Hyderabad",
    "lat": 17.3857668,
    "lng": 78.3671787
  },
  {
    "location": "Kareemguda, Rampally, Secunderabad",
    "lat": 17.4763516,
    "lng": 78.65476679999999
  },
  {
    "location": "Survey No.151, At Saheb Nagar, Hayathnagar, South Hyderabad, Hyderabad",
    "lat": 17.3206466,
    "lng": 78.5809891
  },
  {
    "location": "5, Ruby Block, Satyam Enclave, Kompally, North Hyderabad, Hyderabad",
    "lat": 17.5316312,
    "lng": 78.4841706
  },
  {
    "location": "Kongara Kalan, South Hyderabad, Hyderabad",
    "lat": 17.4358539,
    "lng": 78.2999004
  },
  {
    "location": "Survey No. 699, On NH-65, Patancheru, West Hyderabad, Hyderabad",
    "lat": 17.5296254,
    "lng": 78.2624436
  },
  {
    "location": "Peeramcheru, Hyderabad",
    "lat": 17.3585811,
    "lng": 78.3773928
  },
  {
    "location": "Venkateshwara Nagar, Serilingampally, Hyderabad, 500084",
    "lat": 17.4817734,
    "lng": 78.34795369999999
  },
  {
    "location": "Kongara Kalan, Adibatla, South Hyderabad",
    "lat": 17.2002832,
    "lng": 78.5504691
  },
  {
    "location": "Marva Township B, Narsingi, West Hyderabad, Hyderabad",
    "lat": 17.3853952,
    "lng": 78.3646141
  },
  {
    "location": "Narsingi, Hyderabad",
    "lat": 17.3875755,
    "lng": 78.3572111
  },
  {
    "location": "Turkapply, Hyderabad",
    "lat": 17.6656219,
    "lng": 78.6039533
  },
  {
    "location": "Ghatkesar, Hyderabad",
    "lat": 17.4510735,
    "lng": 78.6809932
  },
  {
    "location": "Kardanur, Patancheru, West Hyderabad, Hyderabad",
    "lat": 17.5142221,
    "lng": 78.2319289
  },
  {
    "location": "Annojiguda, Hyderabad",
    "lat": 17.4359044,
    "lng": 78.6622155
  },
  {
    "location": "Royal Function Hall, Narsingi, West Hyderabad, Hyderabad",
    "lat": 17.3875755,
    "lng": 78.3572111
  },
  {
    "location": "Velmala, Hyderabad",
    "lat": 17.4739025,
    "lng": 78.22767759999999
  },
  {
    "location": "Ramanthapur, Chinna Shivnoor, North Hyderabad",
    "lat": 17.9465656,
    "lng": 78.48087749999999
  },
  {
    "location": "Nallagandala, Lingampally, North Hyderabad, Hyderabad",
    "lat": 17.4747785,
    "lng": 78.3102918
  },
  {
    "location": "Himayat Nagar, Hyderabad",
    "lat": 17.4020637,
    "lng": 78.4840052
  },
  {
    "location": "Kolanpaka, Alair",
    "lat": 17.406498,
    "lng": 78.47724389999999
  },
  {
    "location": "Burgula Village, Hyderabad",
    "lat": 17.5013388,
    "lng": 78.4226666
  },
  {
    "location": "Madhapur, Hyderabad",
    "lat": 17.4485835,
    "lng": 78.39080349999999
  },
  {
    "location": "Bowrampet, Hyderabad",
    "lat": 17.5621396,
    "lng": 78.4021004
  },
  {
    "location": "Survey No.162/part And 165/part, At Kothapet, East Hyderabad, Hyderabad",
    "lat": 17.3730192,
    "lng": 78.547636
  },
  {
    "location": "Medchal, North Hyderabad, Hyderabad",
    "lat": 17.6323358,
    "lng": 78.48048279999999
  },
  {
    "location": "Ward No. 3, Block No 1, Gowtham Nagar, Bahadurguda, Kothapet, South Hyderabad, Hyderabad",
    "lat": 17.460843,
    "lng": 78.456755
  },
  {
    "location": "Atevelle, Medchal, North Hyderabad, Secunderabad",
    "lat": 17.6323358,
    "lng": 78.48048279999999
  },
  {
    "location": "Mogullavampu, Yacharam, South Hyderabad, Hyderabad",
    "lat": 17.4358539,
    "lng": 78.2999004
  },
  {
    "location": "Tarnaka, Hyderabad",
    "lat": 17.4300625,
    "lng": 78.5415931
  },
  {
    "location": "Attapur, Hyderabad",
    "lat": 17.3767325,
    "lng": 78.4296535
  },
  {
    "location": "Ameerpet, Hyderabad",
    "lat": 17.4375084,
    "lng": 78.4482441
  },
  {
    "location": "Sultan Bazar, Hyderguda, Central Hyderabad, Hyderabad",
    "lat": 17.3913784,
    "lng": 78.4783369
  },
  {
    "location": "Lemoor, Hyderabad",
    "lat": 17.1379227,
    "lng": 78.5156793
  },
  {
    "location": "Nallavelly, Yacharam, South Hyderabad, Hyderabad",
    "lat": 17.0005334,
    "lng": 78.7323298
  },
  {
    "location": "Sun City Area, Bandlaguda, Appa Junction, Opp More Supermarket, Padmasri Estates, Sun City, Bandlaguda Jagir, Hyderabad, Telangana, India. ",
    "lat": 17.3631344,
    "lng": 78.396519
  },
  {
    "location": "Almasguda, Hyderabad",
    "lat": 17.3125498,
    "lng": 78.53632879999999
  },
  {
    "location": "Kothur, Hyderabad",
    "lat": 17.1473784,
    "lng": 78.2887361
  },
  {
    "location": "Padmarao Nagar, HITEC City, Hyderabad",
    "lat": 17.4253481,
    "lng": 78.51503269999999
  },
  {
    "location": "Sainikpuri, Hyderabad",
    "lat": 17.492838,
    "lng": 78.54690149999999
  },
  {
    "location": "Aushapur, East Hyderabad, Hyderabad",
    "lat": 17.4620347,
    "lng": 78.7355759
  },
  {
    "location": "Peerzadiguda, East Hyderabad, Hyderabad",
    "lat": 17.3990571,
    "lng": 78.6098059
  },
  {
    "location": "Kandi, IIT Mumbai Highway, North Hyderabad",
    "lat": 17.4834672,
    "lng": 78.4128583
  },
  {
    "location": "Somajiguda, Hyderabad",
    "lat": 17.4237128,
    "lng": 78.4584013
  },
  {
    "location": "Bowenpally, Hyderabad",
    "lat": 17.4685901,
    "lng": 78.4810648
  },
  {
    "location": "Bachupally, Hyderabad, Telangana, India",
    "lat": 17.5513353,
    "lng": 78.3855189
  },
  {
    "location": "Gandamguda, West Hyderabad, Hyderabad",
    "lat": 17.3650273,
    "lng": 78.3799564
  },
  {
    "location": "Sy No 342/1, Narsingi, West Hyderabad, Hyderabad",
    "lat": 17.3875755,
    "lng": 78.3572111
  },
  {
    "location": "Doctors Colony, Saroornagar, Hyderabad",
    "lat": 17.3577042,
    "lng": 78.5422554
  },
  {
    "location": "Serilingampally, North Hyderabad, Hyderabad",
    "lat": 17.4886559,
    "lng": 78.3166526
  },
  {
    "location": "Chitrapuri Colony, Bagh Lingampalli, Narayanguda, Hyderabad, Telangana 500027",
    "lat": 17.3956363,
    "lng": 78.4926609
  },
  {
    "location": "Telapur, Kollur, West Hyderabad,",
    "lat": 17.4435941,
    "lng": 78.2508532
  },
  {
    "location": "Gandamguda, Hyderaba",
    "lat": 17.3701483,
    "lng": 78.3841977
  },
  {
    "location": "Bandlaguda Jagir, Hyderabad",
    "lat": 17.3629719,
    "lng": 78.3943263
  },
  {
    "location": "218/2,76, Kondapur, West Hyderabad, Hyderabad",
    "lat": 17.4700319,
    "lng": 78.3534174
  },
  {
    "location": "survey No. 337,337/p, Plot No. Of Site 17,18 And 19p, At Gandipet, Puppalaguda, West Hyderabad, Hyderabad",
    "lat": 17.3982116,
    "lng": 78.3748513
  },
  {
    "location": "Sangareddy, North Hyderabad, Hyderabad",
    "lat": 17.6075232,
    "lng": 78.0798191
  },
  {
    "location": "Isnapur, West Hyderabad, Hyderabad",
    "lat": 17.546631,
    "lng": 78.2131398
  },
  {
    "location": "Opp South India Shopping Beside Vasavi MPM Grand Mall, Ameerpet, Hyderabad",
    "lat": 17.4343144,
    "lng": 78.4451005
  },
  {
    "location": "Keshampet, Hyderabad, Telangana, India",
    "lat": 17.406498,
    "lng": 78.47724389999999
  },
  {
    "location": "Beside Sub-Register Office Gandipet, Pillar No. 86, Attapur, West Hyderabad, Hyderabad",
    "lat": 17.3707941,
    "lng": 78.4254852
  },
  {
    "location": "Kothur B, Zahirabad",
    "lat": 17.406498,
    "lng": 78.47724389999999
  },
  {
    "location": "Keesara Daira, Secunderabad Price on Request Contact Developer",
    "lat": 17.5157617,
    "lng": 78.5805477
  },
  {
    "location": "Nenknampur, West Hyderabad",
    "lat": 17.3858283,
    "lng": 78.3729053
  },
  {
    "location": "Kismatpur, Hyderabad, Telangana, India. ",
    "lat": 17.3380151,
    "lng": 78.38259939999999
  },
  {
    "location": "Plot No.10441/1/5, At Asif Nagar, Humayu Nagar, Banjara Hills, West Hyderabad,",
    "lat": 17.3991205,
    "lng": 78.4460041
  },
  {
    "location": "Survey No Plot No Of Site 114654 And Old No F1 339 At Redhills, Banjara Hills, West Hyderabad,",
    "lat": 17.3989544,
    "lng": 78.46240639999999
  },
  {
    "location": "Mailardevpally, Hyderabad",
    "lat": 17.3184713,
    "lng": 78.4519262
  },
  {
    "location": "Saroor Nagar, South Hyderabad, Hyderabad",
    "lat": 17.3529457,
    "lng": 78.5356595
  },
  {
    "location": "Gandipet, Hyderabad",
    "lat": 17.3845614,
    "lng": 78.3201634
  },
  {
    "location": "Gun Foundry, Basheer Bagh, Hyderguda, Central Hyderabad, Hyderabad",
    "lat": 17.3961832,
    "lng": 78.4773256
  },
  {
    "location": "Jillalguda, Hyderabad",
    "lat": 17.3333491,
    "lng": 78.5259368
  },
  {
    "location": "Plot No 65, H No. 1611781/1, At Saidabad, South Hyderabad, Hyderabad",
    "lat": 17.376927,
    "lng": 78.5173654
  },
  {
    "location": "Gagan Pahad, Rajendra Nagar, West Hyderabad, Hyderabad",
    "lat": 17.320796,
    "lng": 78.4000641
  },
  {
    "location": "Thammadpalli, Zahirabad",
    "lat": 17.406498,
    "lng": 78.47724389999999
  },
  {
    "location": "Qutubullapur, Hyderabad",
    "lat": 17.4983928,
    "lng": 78.46368389999999
  },
  {
    "location": "Nagaram, Hyderabad",
    "lat": 17.485291,
    "lng": 78.6098847
  },
  {
    "location": "Mallapur Main Road, NTR Nagar, Mallapur, Secunderabad, Telangana, India. ",
    "lat": 17.4472659,
    "lng": 78.5714384
  },
  {
    "location": "SMNR Garden Road, Bachupally, Hyderabad, Telangana, India.",
    "lat": 17.5533103,
    "lng": 78.3697664
  },
  {
    "location": "Raikal, Hyderabad",
    "lat": 17.406498,
    "lng": 78.47724389999999
  },
  {
    "location": "Gopanpally, Tellapur, Hyderabad, Telangana, India.",
    "lat": 17.4357962,
    "lng": 78.3012566
  },
  {
    "location": "Nanakram Guda, Financial District, Gachibowli, Hyderabad, Telangana",
    "lat": 17.4117312,
    "lng": 78.3424898
  },
  {
    "location": "Survey No. 98, Kondapur, North Hyderabad, Hyderabad",
    "lat": 17.4669311,
    "lng": 78.3364474
  },
  {
    "location": "Seriingampally, North Hyderabad, Hyderabad",
    "lat": 17.4886559,
    "lng": 78.3166526
  },
  {
    "location": "Tellapur, West Hyderabad",
    "lat": 17.463172,
    "lng": 78.2864815
  },
  {
    "location": "Patighanpur, Hyderabad",
    "lat": 17.5098538,
    "lng": 78.24476670000001
  },
  {
    "location": "Power Welfare Society, Kokapet, West Hyderabad, Hyderabad",
    "lat": 17.3936684,
    "lng": 78.3472424
  },
  {
    "location": "Survey No. 217/p & 219/p, At Sangem, Keshampet, Hyderabad",
    "lat": 17.406498,
    "lng": 78.47724389999999
  },
  {
    "location": "Venkateshwara Colony, Hyderabad",
    "lat": 17.3550492,
    "lng": 78.5333806
  },
  {
    "location": "Kothapet, East Hyderabad, Hyderabad",
    "lat": 17.3730192,
    "lng": 78.547636
  },
  {
    "location": "Kondurg, Hyderabad",
    "lat": 17.406498,
    "lng": 78.47724389999999
  },
  {
    "location": "Survey No. 10, Block G, Kachiguda Station Road, Kachiguda, Central Hyderabad, Hyderabad",
    "lat": 17.3862108,
    "lng": 78.4943697
  },
  {
    "location": "Adibatla, Kongara Kalan, South Hyderabad,",
    "lat": 17.2002832,
    "lng": 78.5504691
  },
  {
    "location": "Begumpet, Hyderabad",
    "lat": 17.4447068,
    "lng": 78.4663812
  },
  {
    "location": "Suraram, Sadashivpet",
    "lat": 17.5412112,
    "lng": 78.43384809999999
  },
  {
    "location": "Venkatapur, Hyderabad",
    "lat": 17.2956384,
    "lng": 78.4879809
  },
  {
    "location": "Zaheerabad, Kothur, Hyderabad",
    "lat": 17.6795276,
    "lng": 77.6050959
  },
  {
    "location": "Digwal, Kohir",
    "lat": 17.406498,
    "lng": 78.47724389999999
  },
  {
    "location": "Chilkepally, Kohir",
    "lat": 17.406498,
    "lng": 78.47724389999999
  },
  {
    "location": "MES Colony, Alwal, Secunderabad",
    "lat": 17.4994294,
    "lng": 78.5060922
  },
  {
    "location": "Bhuvanagiri, Hyderabad",
    "lat": 17.406498,
    "lng": 78.47724389999999
  },
  {
    "location": "Plot No 26 And 27, At Ammu Guda, Malkajgiri, Secunderabad",
    "lat": 17.4966724,
    "lng": 78.53378570000001
  },
  {
    "location": "Malkajgiri, Secunderabad",
    "lat": 17.4503375,
    "lng": 78.53224809999999
  },
  {
    "location": "Ramanthapur, Hyderabad",
    "lat": 17.3852774,
    "lng": 78.52775059999999
  },
  {
    "location": "Andhra Kesari Nagar, Vanasthalipuram, South Hyderabad, Hyderabad",
    "lat": 17.3275419,
    "lng": 78.5761559
  },
  {
    "location": "Ghatkesar, East Hyderabad, Hyderabad",
    "lat": 17.4510735,
    "lng": 78.6809932
  },
  {
    "location": "Pocharam, South Hyderabad, Hyderabad",
    "lat": 17.4248522,
    "lng": 78.6448085
  },
  {
    "location": "Vanasthalipuram, Hyderabad",
    "lat": 17.3317096,
    "lng": 78.5753592
  },
  {
    "location": "Abids, Hyderabad",
    "lat": 17.393,
    "lng": 78.473
  },
  {
    "location": "Maheshwaram, South Hyderabad,",
    "lat": 17.5629233,
    "lng": 78.3751566
  },
  {
    "location": "Kompally, North Hyderabad, Hyderabad",
    "lat": 17.5366218,
    "lng": 78.4844811
  },
  {
    "location": "Budvel, North Hyderabad, Hyderabad",
    "lat": 17.3343684,
    "lng": 78.40646869999999
  },
  {
    "location": "Quli Qutub Shah Layout, Narsingi",
    "lat": 17.3961359,
    "lng": 78.3718854
  },
  {
    "location": "Survey No. 78 & 81, At Damarigidda, Chevella, West Hyderabad,",
    "lat": 17.3133907,
    "lng": 78.139324
  },
  {
    "location": "Velmala, West Hyderabad, Hyderabad",
    "lat": 17.4739025,
    "lng": 78.22767759999999
  },
  {
    "location": "Appa Junction Peerancheru, West Hyderabad, Hyderabad",
    "lat": 17.3519681,
    "lng": 78.366936
  },
  {
    "location": "Appa Junction, Peeranchuruvu, West Hyderabad, Hyderabad",
    "lat": 17.3519681,
    "lng": 78.366936
  },
  {
    "location": "Pragnapur, Gajwel",
    "lat": 17.406498,
    "lng": 78.47724389999999
  },
  {
    "location": "Gachibowli, Hyderabad",
    "lat": 17.4400802,
    "lng": 78.3489168
  },
  {
    "location": "Financial District, Gachibowli, Hyderabad, Telangana, India.",
    "lat": 17.4117312,
    "lng": 78.3424898
  },
  {
    "location": "Bachupally, Quthbullapur, Manda, Miyapur, North Hyderabad, Hyderabad",
    "lat": 17.5513353,
    "lng": 78.3855189
  },
  {
    "location": "Bowrampet, North Hyderabad, Hyderabad",
    "lat": 17.5621396,
    "lng": 78.4021004
  },
  {
    "location": "Bowrampet, Dundigal,, North Hyderabad, Hyderabad",
    "lat": 17.5621396,
    "lng": 78.4021004
  },
  {
    "location": "Abdullapurmet, Gowraipally, East Hyderabad, Hyderabad",
    "lat": 17.3100943,
    "lng": 78.68613909999999
  },
  {
    "location": "Hi Tech City, Hyderabad",
    "lat": 17.4434646,
    "lng": 78.3771953
  },
  {
    "location": "Shamirpet, Secunderabad",
    "lat": 17.5958184,
    "lng": 78.5712832
  },
  {
    "location": "Gachibowli, Hyderabad, Telangana, India",
    "lat": 17.4400802,
    "lng": 78.3489168
  },
  {
    "location": "appa junction peerancheru",
    "lat": 17.3519681,
    "lng": 78.366936
  },
  {
    "location": "Rudraram, Hyderabad",
    "lat": 17.5615117,
    "lng": 78.1661883
  },
  {
    "location": "Plot No 467-B And 468-B, Kondapur, West Hyderabad, Hyderabad",
    "lat": 17.4700319,
    "lng": 78.3534174
  },
  {
    "location": "Abdullahpurmet, Hyderabad",
    "lat": 17.3100943,
    "lng": 78.68613909999999
  },
  {
    "location": "Golden Mile Layout, Kokapet, West Hyderabad, Hyderabad",
    "lat": 17.4018023,
    "lng": 78.335534
  },
  {
    "location": "Pragathi Nagar, North Hyderabad, Hyderabad",
    "lat": 17.5186369,
    "lng": 78.3962529
  },
  {
    "location": "Kapra, Hyderabad",
    "lat": 17.4885251,
    "lng": 78.5681716
  },
  {
    "location": "Tellapur, West Hyderabad, Hyderabad",
    "lat": 17.463172,
    "lng": 78.2864815
  },
  {
    "location": "Neopolis Layout, Kokapet, West Hyderabad, Hyderabad",
    "lat": 17.4034581,
    "lng": 78.3146812
  },
  {
    "location": "Mamidipally, South Hyderabad, Hyderabad",
    "lat": 17.2541312,
    "lng": 78.4496168
  },
  {
    "location": "Jeedimetla, North Hyderabad, Hyderabad",
    "lat": 17.5196968,
    "lng": 78.4586419
  },
  {
    "location": "Plot No. Of Site 20 Part Northern And 21, At Serilingampally, Hafeezpet, North Hyderabad, Hyderabad",
    "lat": 17.4841683,
    "lng": 78.3602942
  },
  {
    "location": "Nadergul, South Hyderabad, Hyderabad",
    "lat": 17.4358539,
    "lng": 78.2999004
  },
  {
    "location": "Mallampet, Hyderabad, Telangana, India",
    "lat": 17.5502182,
    "lng": 78.3358612
  },
  {
    "location": "Gajularamaram, Hyderabad",
    "lat": 17.5349627,
    "lng": 78.4022446
  },
  {
    "location": "Khajaguda, Manikonda, Hyderabad",
    "lat": 17.4178862,
    "lng": 78.3641592
  },
  {
    "location": "Shamirpet, Hyderabad",
    "lat": 17.5958184,
    "lng": 78.5712832
  },
  {
    "location": "Karmanghat, South Hyderabad, Hyderabad",
    "lat": 17.4358539,
    "lng": 78.2999004
  },
  {
    "location": "Narepally, East Hyderabad, Hyderabad",
    "lat": 17.4293729,
    "lng": 78.6137993
  },
  {
    "location": "Velimela, Hyderabad, Telangana, India.",
    "lat": 17.4855413,
    "lng": 78.23616679999999
  },
  {
    "location": "Financial District, Hyderabad",
    "lat": 17.4117312,
    "lng": 78.3424898
  },
  {
    "location": "Bala Nagar, Hyderabad",
    "lat": 17.4813993,
    "lng": 78.44899350000001
  },
  {
    "location": "Financial District, Near Nanakramguda, West Hyderabad, Hyderabad 4.3 Write a Review",
    "lat": 17.4117312,
    "lng": 78.3424898
  },
  {
    "location": "Rc Puram, Telapur, West Hyderabad, Hyderabad",
    "lat": 17.463172,
    "lng": 78.2864815
  },
  {
    "location": "Kurimidda, Nazdik Singaram, South Hyderabad, Hyderabad",
    "lat": 17.4358539,
    "lng": 78.2999004
  },
  {
    "location": "Alkapur Township, Hyderabad",
    "lat": 17.3869595,
    "lng": 78.3692899
  },
  {
    "location": "Saraswathi Guda Road, Srisailam Highway, Tukkuguda, Hyderabad, Telangana, 501359, India. ",
    "lat": 17.171532,
    "lng": 78.498189
  },
  {
    "location": "At Ramky Discovery City, Near Hyderabad International Airport, ORR Exit No. 14, Srisailam Road, Maheshwaram, South Hyderabad, Hyderabad",
    "lat": 17.2402827,
    "lng": 78.429358
  },
  {
    "location": "Financial Disst Extension Off Narsingi Road, Manikonda, West Hyderabad, Hyderabad",
    "lat": 17.4005495,
    "lng": 78.3685312
  },
  {
    "location": "Pragathi Nagar, Hyderabad, Telangana, India.",
    "lat": 17.5186369,
    "lng": 78.3962529
  },
  {
    "location": "Kokapet, Hyderabad, Telangana, India",
    "lat": 17.3968106,
    "lng": 78.33479609999999
  },
  {
    "location": "Nallagandla, Gachibowli, Hyderabad, Telangana, India",
    "lat": 17.4604659,
    "lng": 78.308095
  },
  {
    "location": "Exit No 14 , Srisailam Highway, Thukkuguda Jn.",
    "lat": 17.3084472,
    "lng": 78.4757161
  },
  {
    "location": "Turkayamjal, South Hyderabad, Hyderabad",
    "lat": 17.27139,
    "lng": 78.5781119
  },
  {
    "location": "Ghanpur, Hyderabad",
    "lat": 17.4910266,
    "lng": 78.2219806
  },
  {
    "location": "Shankarpally, West Hyderabad, Hyderabad",
    "lat": 17.4551243,
    "lng": 78.13150639999999
  },
  {
    "location": "Survey No 66/AA, Alkapuri Township Road No 25, Neknampur, Manikonda, West Hyderabad, Hyderabad",
    "lat": 17.3910894,
    "lng": 78.37426049999999
  },
  {
    "location": "Serilingampally, Haffezpet, North Hyderabad, Hyderabad",
    "lat": 17.4841683,
    "lng": 78.3602942
  },
  {
    "location": "Nizampet, Bachupally, North Hyderabad, Hyderabad",
    "lat": 17.5196675,
    "lng": 78.3778542
  },
  {
    "location": "Mumbai",
    "lat": 19.0759837,
    "lng": 72.8776559
  },
  {
    "location": "Delhi",
    "lat": 17.406498,
    "lng": 78.47724389999999
  },
  {
    "location": "Bangalore",
    "lat": 12.9715987,
    "lng": 77.5945627
  },
  {
    "location": "Bachupally, Hyderabad, Telangana, India.",
    "lat": 17.5513353,
    "lng": 78.3855189
  },
  {
    "location": "bachupally , hyderabad",
    "lat": 17.5513353,
    "lng": 78.3855189
  },
  {
    "location": "Gandimaisama",
    "lat": 17.5752184,
    "lng": 78.4232303
  },
  {
    "location": "Dulapally, Hyderabad",
    "lat": 17.5466066,
    "lng": 78.4667757
  },
  {
    "location": "Narsampally, Hyderabad",
    "lat": 17.406498,
    "lng": 78.47724389999999
  },
  {
    "location": "S And S Build Home Projects LLP",
    "lat": 17.4921003,
    "lng": 78.38056120000002
  },
  {
    "location": "Pati, Patancheru, West Hyderabad, Hyderabad",
    "lat": 17.4920473,
    "lng": 78.23907059999999
  },
  {
    "location": "Padmarao Nagar, Secunderabad",
    "lat": 17.4253481,
    "lng": 78.51503269999999
  },
  {
    "location": "Ragavendra And Prasanti Housing Building Society, Kondapur, West Hyderabad, Hyderabad",
    "lat": 17.4700319,
    "lng": 78.3534174
  },
  {
    "location": "02, Sahebnagar Kalan, Vanasthalipuram, South Hyderabad, Hyderabad",
    "lat": 17.319026,
    "lng": 78.5763877
  },
  {
    "location": "TSPA Junction, Bandlaguda, Rajendra Nagar, West Hyderabad, Hyderabad",
    "lat": 17.3523146,
    "lng": 78.35837839999999
  },
  {
    "location": "Ambedkar Nagar, Hafeezpet, Hyderabad",
    "lat": 17.4940929,
    "lng": 78.3593336
  },
  {
    "location": "Sadashivpet, Hyderabad",
    "lat": 17.406498,
    "lng": 78.47724389999999
  },
  {
    "location": "Uppal Bhagat, East Hyderabad, Hyderabad",
    "lat": 17.3983774,
    "lng": 78.5582652
  },
  {
    "location": "Bibinagar, Hyderabad",
    "lat": 17.406498,
    "lng": 78.47724389999999
  },
  {
    "location": "Dargulpalle, Vikarabad",
    "lat": 17.5908967,
    "lng": 77.8081363
  },
  {
    "location": "Nagole, East Hyderabad, Hyderabad",
    "lat": 17.3714737,
    "lng": 78.5695016
  },
  {
    "location": "Sri Venkateshwara Colony, Ward No 8, Saroor Nagar, South Hyderabad, Hyderabad",
    "lat": 17.3512963,
    "lng": 78.5353166
  },
  {
    "location": "S V Builders And Developers Private Limited",
    "lat": 17.409363,
    "lng": 78.4819436
  },
  {
    "location": "Badangpet, South Hyderabad, Hyderabad",
    "lat": 17.3052765,
    "lng": 78.5253226
  },
  {
    "location": "Kolanpaka, Alair, Hyderabad",
    "lat": 17.406498,
    "lng": 78.47724389999999
  },
  {
    "location": "Kakatiya Hills, Vasanth Nagar Colony, Nizampet, Hyderabad,",
    "lat": 17.5316572,
    "lng": 78.3913328
  },
  {
    "location": "Survey No. 446, Plot No. Of Site C45 Part C46 And C47, At BowramPet Colony, Bachupally, North Hyderabad, Hyderabad",
    "lat": 17.5670004,
    "lng": 78.4176926
  },
  {
    "location": "Narsingi, West Hyderabad, Hyderabad",
    "lat": 17.3876025,
    "lng": 78.3572062
  },
  {
    "location": "Survey No. 403, 404 & 405, At Taramatipet, East Hyderabad, Hyderabad",
    "lat": 17.3563592,
    "lng": 78.6775608
  },
  {
    "location": "Korremula, Pocharam, East Hyderabad, Hyderabad",
    "lat": 17.4124373,
    "lng": 78.6430275
  },
  {
    "location": "Tellapur, West Hyderabad, Hyderabad Price on Request Contact Developer Gallery Cover Pic of Sahiti Nirupama",
    "lat": 17.4677667,
    "lng": 78.2874375
  },
  {
    "location": "New Malakpet, Saidabad, South Hyderabad, Hyderabad",
    "lat": 17.367174,
    "lng": 78.5135902
  },
  {
    "location": "564,19/A Part, Alwal, Secunderabad",
    "lat": 17.510304,
    "lng": 78.517067
  },
  {
    "location": "Aswaraopeta, Sathupally",
    "lat": 17.2068797,
    "lng": 80.83746599999999
  },
  {
    "location": "Yadadri Bhuvanagiri, West Hyderabad, Hyderabad",
    "lat": 17.406498,
    "lng": 78.47724389999999
  },
  {
    "location": "Gajularamaram, North Hyderabad, Hyderabad",
    "lat": 17.5349627,
    "lng": 78.4022446
  },
  {
    "location": "Maheshwaram, Mankal, Tukkuguda, South Hyderabad, Hyderabad",
    "lat": 17.2090762,
    "lng": 78.4761307
  },
  {
    "location": "Sri Sai Nagar, Hyderabad",
    "lat": 17.4435038,
    "lng": 78.3892501
  },
  {
    "location": "Gundlapochampalli, Hyderabad",
    "lat": 17.5670553,
    "lng": 78.4773215
  },
  {
    "location": "Sai Krishna Encalve Phase III, Yapral, Secunderabad",
    "lat": 17.4504025,
    "lng": 78.6178858
  },
  {
    "location": "Kokapet, Neopolis SEZ, Hyderabad, Telangana, India",
    "lat": 17.4034581,
    "lng": 78.3146812
  },
  {
    "location": "Seshadri Nagar, Kukatpally, North Hyderabad, Hyderabad",
    "lat": 17.4906212,
    "lng": 78.41664829999999
  },
  {
    "location": "Thummalakunta Tanda, Amangal, Hyderabad",
    "lat": 17.406498,
    "lng": 78.47724389999999
  },
  {
    "location": "Peerancheru, West Hyderabad, West Hyderabad, Hyderabad",
    "lat": 17.3585811,
    "lng": 78.3773928
  },
  {
    "location": "Lingal, Hyderabad, Telangana, India",
    "lat": 16.271028,
    "lng": 78.5167859
  },
  {
    "location": "Sangareddy, North Hyderabad,",
    "lat": 17.406498,
    "lng": 78.47724389999999
  },
  {
    "location": "Survey No. 161, Plot No. Of Site 23,24 Part, 40 Part And 41, At Ameenpur, North Hyderabad, Hyderabad",
    "lat": 17.5171428,
    "lng": 78.315742
  },
  {
    "location": "Jogipet, Hyderabad, Telangana, India",
    "lat": 17.8369622,
    "lng": 78.0680458
  },
  {
    "location": "Kothrepally, Vikarabad",
    "lat": 17.406498,
    "lng": 78.47724389999999
  },
  {
    "location": "Madinaguda, Hyderabad",
    "lat": 17.5003592,
    "lng": 78.3387007
  },
  {
    "location": "Pharma City Road, Sarvaravulapally, Kandukur, South Hyderabad",
    "lat": 17.406498,
    "lng": 78.47724389999999
  },
  {
    "location": "Farooqnagar, Solipur, Shadnagar, Hyderabad",
    "lat": 17.0633124,
    "lng": 78.2164505
  },
  {
    "location": "Sriram Nagar, Jeedimetla, North Hyderabad, Hyderabad",
    "lat": 17.5102863,
    "lng": 78.4737736
  },
  {
    "location": "Mahadevpur Colony, Hyderabad",
    "lat": 17.5213474,
    "lng": 78.4140817
  },
  {
    "location": "Pochamma Wada, Karimnagar",
    "lat": 17.406498,
    "lng": 78.47724389999999
  },
  {
    "location": "Raikal, Shadnagar, Hyderabad",
    "lat": 17.406498,
    "lng": 78.47724389999999
  },
  {
    "location": "Survey No 523/1 And 2 523/9 524 388, Plot No 88Part 89 90 91, Gundlapochampally, Kompally, Hyderabad",
    "lat": 17.569057,
    "lng": 78.47243499999999
  },
  {
    "location": "Nanakramguda, Hyderabad",
    "lat": 17.4169142,
    "lng": 78.3423777
  },
  {
    "location": "Sahebnagar Kalan, Hyderabad",
    "lat": 17.3206466,
    "lng": 78.5809891
  },
  {
    "location": "Sreenagar Revenue Village, Tukkuguda, South Hyderabad, Hyderabad",
    "lat": 17.2090762,
    "lng": 78.4761307
  },
  {
    "location": "Ismailkhanpet, Sangareddy, Hyderabad, Telangana, India",
    "lat": 17.6283697,
    "lng": 78.15786829999999
  },
  {
    "location": "Pregnapur, Gajwel, Siddipet District, Medak, Telangana, India. ",
    "lat": 17.406498,
    "lng": 78.47724389999999
  },
  {
    "location": "Abdullapurmet, Pedda Amberpet, East Hyderabad, Hyderabad",
    "lat": 17.3100943,
    "lng": 78.68613909999999
  },
  {
    "location": "Survey No.9/2, Plot No. Of Site 2,3,4&5/ Part, At Medchal, Gundlapochampally, North Hyderabad, Hyderabad",
    "lat": 17.4537715,
    "lng": 78.4101721
  },
  {
    "location": "Bachupally, North Hyderabad,",
    "lat": 17.5513353,
    "lng": 78.3855189
  },
  {
    "location": "Chintapalli, Hyderabad",
    "lat": 17.406498,
    "lng": 78.47724389999999
  },
  {
    "location": "RL Nagar, Nagaram, Secunderabad",
    "lat": 17.4750355,
    "lng": 78.62517679999999
  },
  {
    "location": "Thummallur Village Of Maheshwaram Mandal, Tukkuguda, South Hyderabad",
    "lat": 17.2090762,
    "lng": 78.4761307
  },
  {
    "location": "Karmanghat, Saroor Nagar, South Hyderabad, Hyderabad",
    "lat": 17.3413189,
    "lng": 78.5315546
  },
  {
    "location": "Nagaram, Hyderabad, Telangana, India",
    "lat": 17.485291,
    "lng": 78.6098847
  },
  {
    "location": "Vangapalli, Hyderabad",
    "lat": 17.4335824,
    "lng": 78.4457308
  },
  {
    "location": "O.U.Colony, Shaikpet",
    "lat": 17.4071323,
    "lng": 78.39062179999999
  },
  {
    "location": "Manchirevula, Hyderabad",
    "lat": 17.3727683,
    "lng": 78.3498129
  },
  {
    "location": "Bahadurpally, North Hyderabad, Hyderabad",
    "lat": 17.5641438,
    "lng": 78.4376862
  },
  {
    "location": "Taramatipet, Hyderabad",
    "lat": 17.3563592,
    "lng": 78.6775608
  },
  {
    "location": "Thumkunta, Secunderabad",
    "lat": 17.5630201,
    "lng": 78.55581380000001
  },
  {
    "location": "Muthyam Reddy Nagar, Dammaiguda, Secunderabad",
    "lat": 17.5003026,
    "lng": 78.5938192
  },
  {
    "location": "Pragathi Nagar Kukatpally, North Hyderabad,",
    "lat": 17.497722,
    "lng": 78.3944485
  },
  {
    "location": "Kulbgoor, Sangareddy, North Hyderabad, Hyderabad",
    "lat": 17.6075232,
    "lng": 78.0798191
  },
  {
    "location": "Patancheru, Sangareddy, West Hyderabad,",
    "lat": 17.5287427,
    "lng": 78.266725
  },
  {
    "location": "Neknampur, Manikonda, West Hyderabad, Hyderabad",
    "lat": 17.3858283,
    "lng": 78.3729053
  },
  {
    "location": "Upparpalli, Hyderabad",
    "lat": 17.3601837,
    "lng": 78.4177669
  },
  {
    "location": "Survey No. 100 Part, Plot No. Of Site 29,30 And 31 North Part, At Balaji Nagar, Hayathnagar, South Hyderabad, Hyderabad",
    "lat": 17.3270709,
    "lng": 78.6053386
  },
  {
    "location": "Premavathi Pet, West Hyderabad, Hyderabad",
    "lat": 17.324371,
    "lng": 78.4199163
  },
  {
    "location": "Abdullapurmet, Bandaraviryal, East Hyderabad, Hyderabad",
    "lat": 17.3888539,
    "lng": 78.71844349999999
  },
  {
    "location": "Ghatkesar, Hyderabad,",
    "lat": 17.4510735,
    "lng": 78.6809932
  },
  {
    "location": "Ibrahimpatnam, Hyderabad",
    "lat": 17.1935356,
    "lng": 78.6461413
  },
  {
    "location": "Near Raheja Vistas Nacharam, Mallapur, East Hyderabad, Uppal Kalan",
    "lat": 17.4308707,
    "lng": 78.56415510000001
  },
  {
    "location": "LB Nagar, South Hyderabad, Hyderabad",
    "lat": 17.3457176,
    "lng": 78.55222959999999
  },
  {
    "location": "40 Feet Road, Kurimidda, South Hyderabad",
    "lat": 17.406498,
    "lng": 78.47724389999999
  },
  {
    "location": "Yapral, Sainikpuri, Secunderabad",
    "lat": 17.4996118,
    "lng": 78.5372361
  },
  {
    "location": "Salarpur, Kadthal, South Hyderabad, Hyderabad",
    "lat": 28.5456897,
    "lng": 77.3882686
  },
  {
    "location": "Malkapur, Hyderabad",
    "lat": 17.406498,
    "lng": 78.47724389999999
  },
  {
    "location": "Uppal Bhagayath, Uppal Kalan, East Hyderabad, Hyderabad",
    "lat": 17.3973734,
    "lng": 78.5729458
  },
  {
    "location": "4-165/7, Alwal, Hyderabad",
    "lat": 17.5081867,
    "lng": 78.4992714
  },
  {
    "location": "Farooqnagar, Shadnagar, Hyderabad",
    "lat": 17.0633124,
    "lng": 78.2164505
  },
  {
    "location": "Dubbacherla, Hyderabad",
    "lat": 17.406498,
    "lng": 78.47724389999999
  },
  {
    "location": "Gundlapally, Yadagirigutta",
    "lat": 17.406498,
    "lng": 78.47724389999999
  },
  {
    "location": "Kompally, Hyderabad, Telangana, India",
    "lat": 17.5366218,
    "lng": 78.4844811
  },
  {
    "location": "Pudur, near Kompally, Hyderabad, Telangana, India",
    "lat": 17.6204048,
    "lng": 78.52562040000001
  },
  {
    "location": "Medchal, North Hyderabad, Secunderabad",
    "lat": 17.4399295,
    "lng": 78.4982741
  },
  {
    "location": "Sujay Infra",
    "lat": 17.6077492,
    "lng": 78.4067924
  },
  {
    "location": "Chitkul, Hyderabad",
    "lat": 17.5605535,
    "lng": 78.2162833
  },
  {
    "location": "Masjid Banda Main Road, Kondapur, West Hyderabad, Hyderabad",
    "lat": 17.4665105,
    "lng": 78.3375628
  },
  {
    "location": "Financial District, Nanakramguda, Hyderabad, Telangana, India. ",
    "lat": 17.4117312,
    "lng": 78.3424898
  },
  {
    "location": "228 Of Gaganpahad Village, Shamshabad, South Hyderabad, Hyderabad",
    "lat": 17.2913777,
    "lng": 78.41371099999999
  },
  {
    "location": "Mallikarjuna, Amberpet, East Hyderabad, Hyderabad",
    "lat": 17.3914013,
    "lng": 78.5051498
  },
  {
    "location": "Puppalguda, Financial District, Financial District, Hyderabad, 500089",
    "lat": 17.4117312,
    "lng": 78.3424898
  },
  {
    "location": "Survey No. 105, Plot No. A10, A11, At Manikonda, West Hyderabad, Hyderabad",
    "lat": 17.4062155,
    "lng": 78.3763486
  },
  {
    "location": "Alkapur Township, Manikonda, Hyderabad",
    "lat": 17.3869595,
    "lng": 78.3692899
  },
  {
    "location": "Velimela, West Hyderabad, Hyderabad",
    "lat": 17.4739025,
    "lng": 78.22767759999999
  },
  {
    "location": "Khairtabad, Banjara Hills, North Hyderabad, Hyderabad",
    "lat": 17.416889,
    "lng": 78.43867
  },
  {
    "location": "Moula Ali, Hyderabad",
    "lat": 17.4628723,
    "lng": 78.5608531
  },
  {
    "location": "kollur ,west Hyderabad,",
    "lat": 17.4435941,
    "lng": 78.2508532
  },
  {
    "location": "Swapna CK Meadows Yara",
    "lat": 17.4936194,
    "lng": 78.3350753
  },
  {
    "location": "Ghatkesar, Hyderabad, Telangana, India",
    "lat": 17.4510703,
    "lng": 78.68098789999999
  },
  {
    "location": "Chegunta, Medak",
    "lat": 17.9709477,
    "lng": 78.4623218
  },
  {
    "location": "Pedda Amberpet, Hyderabad",
    "lat": 17.3220772,
    "lng": 78.64412910000001
  },
  {
    "location": "Mokila, Hyderabad",
    "lat": 17.4393361,
    "lng": 78.1849427
  },
  {
    "location": "Pragathi Nagar, Pragathi Nagar Road, Hyderabad",
    "lat": 17.518677,
    "lng": 78.3962705
  },
  {
    "location": "Puppalaguda, Hyderabad, Telangana, India",
    "lat": 17.4046268,
    "lng": 78.3773807
  },
  {
    "location": "Attapur, West Hyderabad, Hyderabad",
    "lat": 17.3767325,
    "lng": 78.4296535
  },
  {
    "location": "Lingojiguda, Saroor Nagar, South Hyderabad, Hyderabad",
    "lat": 17.3525585,
    "lng": 78.534077
  },
  {
    "location": "Bharath Nagar Colony, Uppal Kalan, East Hyderabad, Hyderabad",
    "lat": 17.4034648,
    "lng": 78.56560669999999
  },
  {
    "location": "Saroor Nagar, South Hyderabad, Hyderabad Price on Request Contact Developer",
    "lat": 17.3529457,
    "lng": 78.5356595
  },
  {
    "location": "Padma Nagar, Quthbullapur, North Hyderabad, Hyderabad",
    "lat": 17.4893666,
    "lng": 78.45849869999999
  },
  {
    "location": "Adarsh Nagar Colony, Near Srinivasa Heights, Uppal, East Hyderabad, Uppal Kalan",
    "lat": 17.411948,
    "lng": 78.565653
  },
  {
    "location": "Unknown Location",
    "lat": 17.406498,
    "lng": 78.47724389999999
  },
  {
    "location": "Velmala, West Hyderabad,",
    "lat": 17.4739025,
    "lng": 78.22767759999999
  },
  {
    "location": "Bachupally Main Road, Next To Mamata Academy of Medical Sciences, Bachupally, Hyderabad, Telangana, 500090, India",
    "lat": 17.5394063,
    "lng": 78.3561331
  },
  {
    "location": "Ameenpur, Hyderabad, Telangana, India",
    "lat": 17.5171428,
    "lng": 78.315742
  },
  {
    "location": "Bachupally Extension, Hyderabad, Telangana, India",
    "lat": 17.5513353,
    "lng": 78.3855189
  },
  {
    "location": "Gandi Maisamma, Hyderabad",
    "lat": 17.5752184,
    "lng": 78.4232303
  },
  {
    "location": "kousalya Nagar, Bachupally, North Hyderabad, Hyderabad",
    "lat": 17.5513353,
    "lng": 78.3855189
  },
  {
    "location": "Suraram, Hyderabad",
    "lat": 17.5412112,
    "lng": 78.43384809999999
  },
  {
    "location": "147,Keesara, Cheeriyal, Hyderabad",
    "lat": 17.5280399,
    "lng": 78.6540576
  },
  {
    "location": "Gopanpally, West Hyderabad, Hyderabad",
    "lat": 17.451398,
    "lng": 78.30924259999999
  },
  {
    "location": "Kondapur, West Hyderabad, Hyderabad, Hyderabad District",
    "lat": 17.4700319,
    "lng": 78.3534174
  },
  {
    "location": "Front of LB Nagar Metro Station, Saroor Nagar, South Hyderabad, Hyderabad",
    "lat": 17.3497098,
    "lng": 78.547973
  },
  {
    "location": "Ramanthapur, Uppal, Uppal, Hyderabad, 500038",
    "lat": 17.4440607,
    "lng": 78.4403863
  },
  {
    "location": "Shamirpet, Hyderabad, Telangana, India.",
    "lat": 17.5958184,
    "lng": 78.5712832
  },
  {
    "location": "Hafeezpet, Hyderabad, Telangana, India. ",
    "lat": 17.4841683,
    "lng": 78.3602942
  },
  {
    "location": "Laxmi Narayan Nagar Colony, Ramanthapur, Uppal, Hyderabad, Telangana, India. ",
    "lat": 17.3838426,
    "lng": 78.5533086
  },
  {
    "location": "Suchitra Circle, Kompally, Jeedimetla, North Hyderabad,",
    "lat": 17.499733,
    "lng": 78.477226
  },
  {
    "location": "Hitech, KPHB Road, Opp. Forum Mall, Hyderabad",
    "lat": 17.4843067,
    "lng": 78.38958889999999
  },
  {
    "location": "Gachibowli Circle, Telecom Nagar, Gachibowli, Hyderabad, Telangana, 500081, India. ",
    "lat": 17.438859,
    "lng": 78.3638679
  },
  {
    "location": "Bachupally, Hyderabad, Telangana, India. ",
    "lat": 17.5513353,
    "lng": 78.3855189
  },
  {
    "location": "Medipally, Boduppal, Chengicherla, East Hyderabad, Hyderabad",
    "lat": 17.443179,
    "lng": 78.59731
  },
  {
    "location": "Mansanpally, Ameerpet, Kkbasti Village, Maheshwaram, South Hyderabad, Hyderabad",
    "lat": 17.4375084,
    "lng": 78.4482441
  },
  {
    "location": "Bahadurpally, Hyderabad",
    "lat": 17.5641438,
    "lng": 78.4376862
  },
  {
    "location": "Vanasthalipuram, South Hyderabad, Hyderabad",
    "lat": 17.4358539,
    "lng": 78.2999004
  },
  {
    "location": "Balanagar, Hyderabad",
    "lat": 17.4813993,
    "lng": 78.44899350000001
  },
  {
    "location": "Abdullapurmet, Injapur, South Hyderabad, Hyderabad",
    "lat": 17.4358539,
    "lng": 78.2999004
  },
  {
    "location": "Survey No. 304/part, Plot No. Of Site 47, At Budwel, Rajendra Nagar, South Hyderabad, Hyderabad",
    "lat": 16.3141929,
    "lng": 80.4152648
  },
  {
    "location": "Aushapur Village, Ghatkesar, East Hyderabad, Hyderabad",
    "lat": 17.4620347,
    "lng": 78.7355759
  },
  {
    "location": "Yellampet, Hyderabad",
    "lat": 17.406498,
    "lng": 78.47724389999999
  },
  {
    "location": "Thumukunta, Hyderabad",
    "lat": 17.5630201,
    "lng": 78.55581380000001
  },
  {
    "location": "Survey No.36/ee/1, Open Land, At Rc Puram, Sangareddy, North Hyderabad, Hyderabad",
    "lat": 17.359817,
    "lng": 78.5145077
  },
  {
    "location": "Madhapur, West Hyderabad, Hyderabad",
    "lat": 17.4485835,
    "lng": 78.39080349999999
  },
  {
    "location": "Tellapur, Gopanpally, West Hyderabad, Hyderabad",
    "lat": 17.451398,
    "lng": 78.30924259999999
  },
  {
    "location": "Haridas Pally, Cheeriyal, Hyderabad",
    "lat": 17.5261626,
    "lng": 78.6026315
  },
  {
    "location": "Keesara, Hyderabad",
    "lat": 17.5280399,
    "lng": 78.6540576
  },
  {
    "location": "Survey No.196, Kondapur, Hyderabad, Telangana, India.",
    "lat": 17.51029,
    "lng": 78.385559
  },
  {
    "location": "Kukatpally, North Hyderabad, Kp -2",
    "lat": 17.4875418,
    "lng": 78.3953462
  },
  {
    "location": "Annaram, Shadnagar, Hyderabad",
    "lat": 17.3687748,
    "lng": 78.58240839999999
  },
  {
    "location": "Gurramvaripally, Karimnagar",
    "lat": 18.4385553,
    "lng": 79.1288412
  },
  {
    "location": "Kambalpally, Sadashivpet",
    "lat": 17.406498,
    "lng": 78.47724389999999
  },
  {
    "location": "Amberpeta, Hyderabad",
    "lat": 17.4375084,
    "lng": 78.4482441
  },
  {
    "location": "any location",
    "lat": 17.406498,
    "lng": 78.47724389999999
  },
  {
    "location": "Jeedimetla",
    "lat": 17.5196968,
    "lng": 78.4586419
  },
  {
    "location": "Mallapur",
    "lat": 17.4464663,
    "lng": 78.5745744
  },
  {
    "location": "Kapra",
    "lat": 17.4885251,
    "lng": 78.5681716
  },
  {
    "location": "Jadcherla",
    "lat": 17.406498,
    "lng": 78.47724389999999
  },
  {
    "location": "Old Bowenpally",
    "lat": 17.4798291,
    "lng": 78.4812494
  },
  {
    "location": "Nacharam",
    "lat": 17.4308087,
    "lng": 78.55954799999999
  },
  {
    "location": "Habsiguda",
    "lat": 17.4066234,
    "lng": 78.5437741
  },
  {
    "location": "Secunderabad",
    "lat": 17.4399295,
    "lng": 78.4982741
  },
  {
    "location": "Unknown",
    "lat": 17.406498,
    "lng": 78.47724389999999
  },
  {
    "location": "Gajularamaram",
    "lat": 17.5349627,
    "lng": 78.4022446
  },
  {
    "location": "Pragathi Nagar",
    "lat": 17.5186369,
    "lng": 78.3962529
  },
  {
    "location": "Hyder Nagar",
    "lat": 17.5011026,
    "lng": 78.38516349999999
  },
  {
    "location": "Maheswaram",
    "lat": 17.5629233,
    "lng": 78.3751566
  },
  {
    "location": "Quthbullapur",
    "lat": 17.4983928,
    "lng": 78.46368389999999
  },
  {
    "location": "Malkajgiri",
    "lat": 17.4503375,
    "lng": 78.53224809999999
  },
  {
    "location": "Bolarum",
    "lat": 17.5217602,
    "lng": 78.510961
  },
  {
    "location": "Yapral",
    "lat": 17.5040231,
    "lng": 78.53992099999999
  },
  {
    "location": "Ghatkesar",
    "lat": 17.4510735,
    "lng": 78.6809932
  },
  {
    "location": "Bowrampet",
    "lat": 17.5621396,
    "lng": 78.4021004
  },
  {
    "location": "Chandanagar",
    "lat": 17.4934113,
    "lng": 78.32779479999999
  },
  {
    "location": "Nizampet",
    "lat": 17.5196675,
    "lng": 78.3778542
  },
  {
    "location": "Cherlapally",
    "lat": 17.4695033,
    "lng": 78.5968268
  },
  {
    "location": "Shamirpet",
    "lat": 17.5958184,
    "lng": 78.5712832
  },
  {
    "location": "Gandi Maisamma",
    "lat": 17.5752184,
    "lng": 78.4232303
  },
  {
    "location": "Gundlapochampalli",
    "lat": 17.5670553,
    "lng": 78.4773215
  },
  {
    "location": "Suchitra",
    "lat": 17.5021509,
    "lng": 78.4716424
  },
  {
    "location": "Hydernagar",
    "lat": 17.4944211,
    "lng": 78.3892177
  },
  {
    "location": "Pocharam",
    "lat": 17.4248522,
    "lng": 78.6448085
  },
  {
    "location": "Bowenpally",
    "lat": 17.4685901,
    "lng": 78.4810648
  },
  {
    "location": "Suraram",
    "lat": 17.5412112,
    "lng": 78.43384809999999
  },
  {
    "location": "Sainikpuri",
    "lat": 17.492838,
    "lng": 78.54690149999999
  },
  {
    "location": "Mallampet",
    "lat": 17.5502182,
    "lng": 78.3358612
  },
  {
    "location": "Dundigal",
    "lat": 17.6351238,
    "lng": 78.4022158
  },
  {
    "location": "Hafeezpet",
    "lat": 17.4841683,
    "lng": 78.3602942
  },
  {
    "location": "Boduppal",
    "lat": 17.41412,
    "lng": 78.5790607
  },
  {
    "location": "Saidabad",
    "lat": 17.3573882,
    "lng": 78.5112407
  },
  {
    "location": "Narsingi",
    "lat": 17.3875755,
    "lng": 78.3572111
  },
  {
    "location": "Manneguda",
    "lat": 17.2552444,
    "lng": 78.58572099999999
  },
  {
    "location": "Bahadurpally",
    "lat": 17.5641438,
    "lng": 78.4376862
  },
  {
    "location": "Peerzadiguda",
    "lat": 17.3990571,
    "lng": 78.6098059
  },
  {
    "location": "Moti Nagar",
    "lat": 17.4492116,
    "lng": 78.41820489999999
  },
  {
    "location": "Mokila",
    "lat": 17.4393361,
    "lng": 78.1849427
  },
  {
    "location": "Turkapally",
    "lat": 17.6656219,
    "lng": 78.6039533
  },
  {
    "location": "Yousufguda",
    "lat": 17.4340479,
    "lng": 78.4269776
  },
  {
    "location": "Ameerpet",
    "lat": 17.4375084,
    "lng": 78.4482441
  },
  {
    "location": "Balanagar",
    "lat": 17.4813993,
    "lng": 78.44899350000001
  },
  {
    "location": "Annojiguda",
    "lat": 17.4359044,
    "lng": 78.6622155
  },
  {
    "location": "Gundlapochampally",
    "lat": 17.5670553,
    "lng": 78.4773215
  },
  {
    "location": "Gowdavalli",
    "lat": 17.6117603,
    "lng": 78.4652483
  },
  {
    "location": "Gandimaisamma",
    "lat": 17.5752184,
    "lng": 78.4232303
  },
  {
    "location": "Nagaram",
    "lat": 17.485291,
    "lng": 78.6098847
  },
  {
    "location": "Ameenpur",
    "lat": 17.5171428,
    "lng": 78.315742
  },
  {
    "location": "Dammaiguda",
    "lat": 17.5003026,
    "lng": 78.5938192
  },
  {
    "location": "Himayatnagar",
    "lat": 17.4020637,
    "lng": 78.4840052
  },
  {
    "location": "Narapally",
    "lat": 17.4293729,
    "lng": 78.6137993
  },
  {
    "location": "Hakimpet",
    "lat": 17.5472195,
    "lng": 78.53522029999999
  },
  {
    "location": "Keesara",
    "lat": 17.5280399,
    "lng": 78.6540576
  },
  {
    "location": "Patighanpur",
    "lat": 17.5098538,
    "lng": 78.24476670000001
  },
  {
    "location": "Rajendra Nagar",
    "lat": 17.3220253,
    "lng": 78.4022942
  },
  {
    "location": "Kothur",
    "lat": 17.1473784,
    "lng": 78.2887361
  },
  {
    "location": "Gagillapur",
    "lat": 17.6127536,
    "lng": 78.3894284
  },
  {
    "location": "Jillelguda",
    "lat": 17.3333491,
    "lng": 78.5259368
  },
  {
    "location": "Bandlaguda Jagir",
    "lat": 17.3629719,
    "lng": 78.3943263
  },
  {
    "location": "Sanathnagar",
    "lat": 17.4562544,
    "lng": 78.4439295
  },
  {
    "location": "Kandlakoya",
    "lat": 17.5160064,
    "lng": 78.4907616
  },
  {
    "location": "Medipalli",
    "lat": 17.4047632,
    "lng": 78.6009619
  },
  {
    "location": "Gopanpally",
    "lat": 17.4357962,
    "lng": 78.3012566
  },
  {
    "location": "Hayathnagar",
    "lat": 17.3270709,
    "lng": 78.6053386
  },
  {
    "location": "Shankarpalli",
    "lat": 17.4551243,
    "lng": 78.13150639999999
  },
  {
    "location": "KPHB",
    "lat": 17.4833526,
    "lng": 78.3870668
  },
  {
    "location": "Moula Ali",
    "lat": 17.4628723,
    "lng": 78.5608531
  },
  {
    "location": "L.B. Nagar",
    "lat": 17.3457176,
    "lng": 78.55222959999999
  },
  {
    "location": "Kowkur",
    "lat": 17.5256896,
    "lng": 78.536222
  },
  {
    "location": "Thumkunta",
    "lat": 17.5630201,
    "lng": 78.55581380000001
  },
  {
    "location": "Erragadda",
    "lat": 17.455867,
    "lng": 78.4251967
  },
  {
    "location": "Sadashivpet",
    "lat": 17.406498,
    "lng": 78.47724389999999
  },
  {
    "location": "Cherlapalli",
    "lat": 17.4695033,
    "lng": 78.5968268
  },
  {
    "location": "Pudur",
    "lat": 17.6204048,
    "lng": 78.52562040000001
  },
  {
    "location": "Isnapur",
    "lat": 17.546631,
    "lng": 78.2131398
  },
  {
    "location": "Hitec City",
    "lat": 17.4434646,
    "lng": 78.3771953
  },
  {
    "location": "Rampally",
    "lat": 17.4671913,
    "lng": 78.64186959999999
  },
  {
    "location": "Padmarao Nagar",
    "lat": 17.4253481,
    "lng": 78.51503269999999
  },
  {
    "location": "Somajiguda",
    "lat": 17.4237128,
    "lng": 78.4584013
  },
  {
    "location": "Begumpet",
    "lat": 17.4447068,
    "lng": 78.4663812
  },
  {
    "location": "Toli Chowki",
    "lat": 17.3990023,
    "lng": 78.4156933
  },
  {
    "location": "Film Nagar",
    "lat": 17.4160258,
    "lng": 78.4113656
  },
  {
    "location": "Lakdi Ka Pul",
    "lat": 17.3992721,
    "lng": 78.4627103
  },
  {
    "location": "Himayat Nagar",
    "lat": 17.4020637,
    "lng": 78.4840052
  },
  {
    "location": "Banjarahills",
    "lat": 17.416889,
    "lng": 78.43867
  },
  {
    "location": "Old Malakpet",
    "lat": 17.3780084,
    "lng": 78.50525739999999
  },
  {
    "location": "Hayatnagar",
    "lat": 17.2973849,
    "lng": 78.3927547
  },
  {
    "location": "Meerpet",
    "lat": 17.3227982,
    "lng": 78.5280016
  },
  {
    "location": "Chikkadpally",
    "lat": 17.4009377,
    "lng": 78.4965043
  },
  {
    "location": "Saroornagar",
    "lat": 17.3529457,
    "lng": 78.5356595
  },
  {
    "location": "Amberpet",
    "lat": 17.3920179,
    "lng": 78.51625589999999
  },
  {
    "location": "Kharmanghat",
    "lat": 17.3413189,
    "lng": 78.5315546
  },
  {
    "location": "Malakpet",
    "lat": 17.3716458,
    "lng": 78.49097669999999
  },
  {
    "location": "Shaikpet",
    "lat": 17.4059875,
    "lng": 78.3908428
  },
  {
    "location": "Vanasthalipuram",
    "lat": 17.3317096,
    "lng": 78.5753592
  },
  {
    "location": "Kachiguda",
    "lat": 17.3900857,
    "lng": 78.49333519999999
  },
  {
    "location": "Gayatri Nagar",
    "lat": 17.454467,
    "lng": 78.4034188
  },
  {
    "location": "Mansoorabad",
    "lat": 17.3426508,
    "lng": 78.5734931
  },
  {
    "location": "Mehdipatnam",
    "lat": 17.3957847,
    "lng": 78.4311944
  },
  {
    "location": "Moinabad",
    "lat": 17.3274692,
    "lng": 78.274513
  },
  {
    "location": "Kavadiguda",
    "lat": 17.4170509,
    "lng": 78.4906774
  },
  {
    "location": "Hyderguda",
    "lat": 17.3938227,
    "lng": 78.4834733
  },
  {
    "location": "Sanath Nagar",
    "lat": 17.4562544,
    "lng": 78.4439295
  },
  {
    "location": "Nampally",
    "lat": 17.3879964,
    "lng": 78.4671718
  },
  {
    "location": "Beeramguda",
    "lat": 17.518468,
    "lng": 78.3038449
  },
  {
    "location": "Masab Tank",
    "lat": 17.403307,
    "lng": 78.4529396
  },
  {
    "location": "Kalyan Nagar",
    "lat": 17.4526394,
    "lng": 78.42190049999999
  },
  {
    "location": "Tarnaka",
    "lat": 17.4300625,
    "lng": 78.5415931
  },
  {
    "location": "Indresham",
    "lat": 17.5747889,
    "lng": 78.25485890000002
  },
  {
    "location": "Osman Nagar",
    "lat": 17.4415837,
    "lng": 78.2785379
  },
  {
    "location": "Lingampally",
    "lat": 17.4886559,
    "lng": 78.3166526
  },
  {
    "location": "Pothireddypalli",
    "lat": 17.5909542,
    "lng": 78.0809223
  },
  {
    "location": "Kandi",
    "lat": 17.5829521,
    "lng": 78.1073601
  },
  {
    "location": "Muthangi",
    "lat": 17.5425548,
    "lng": 78.2267425
  },
  {
    "location": "Choutuppal",
    "lat": 17.406498,
    "lng": 78.47724389999999
  },
  {
    "location": "Velimela",
    "lat": 17.4739025,
    "lng": 78.22767759999999
  },
  {
    "location": "Madinaguda",
    "lat": 17.5003592,
    "lng": 78.3387007
  },
  {
    "location": "Ramachandrapuram",
    "lat": 17.5127438,
    "lng": 78.2878659
  },
  {
    "location": "Khajaguda",
    "lat": 17.4178862,
    "lng": 78.3641592
  },
  {
    "location": "Patancheruvu",
    "lat": 17.5287427,
    "lng": 78.266725
  },
  {
    "location": "Chitkul",
    "lat": 17.5605535,
    "lng": 78.2162833
  },
  {
    "location": "Ranjol",
    "lat": 17.406498,
    "lng": 78.47724389999999
  },
  {
    "location": "Kismatpur",
    "lat": 17.3380151,
    "lng": 78.38259939999999
  },
  {
    "location": "Serilingampally",
    "lat": 17.4836979,
    "lng": 78.3158338
  },
  {
    "location": "Pothreddipalle",
    "lat": 17.5909542,
    "lng": 78.0809223
  },
  {
    "location": "Kardanur",
    "lat": 17.5142221,
    "lng": 78.2319289
  },
  {
    "location": "Sanga Reddy",
    "lat": 17.406498,
    "lng": 78.47724389999999
  },
  {
    "location": "Neopolis",
    "lat": 17.4034581,
    "lng": 78.3146812
  },
  {
    "location": "Sultanpur",
    "lat": 17.375189,
    "lng": 78.4875418
  },
  {
    "location": "Bhanur",
    "lat": 17.4735741,
    "lng": 78.17354379999999
  },
  {
    "location": "Manmole",
    "lat": 17.406498,
    "lng": 78.47724389999999
  },
  {
    "location": "Patelguda",
    "lat": 17.5457997,
    "lng": 78.28605379999999
  },
  {
    "location": "Malkapur",
    "lat": 17.406498,
    "lng": 78.47724389999999
  },
  {
    "location": "Ramanthapur",
    "lat": 17.3852774,
    "lng": 78.52775059999999
  },
  {
    "location": "Shankarpally",
    "lat": 17.4551243,
    "lng": 78.13150639999999
  },
  {
    "location": "Puppalaguda",
    "lat": 17.3982116,
    "lng": 78.3748513
  },
  {
    "location": "Karmanghat",
    "lat": 17.3413189,
    "lng": 78.5315546
  },
  {
    "location": "Raidurgam",
    "lat": 17.4221727,
    "lng": 78.3818229
  },
  {
    "location": "Pedda Amberpet",
    "lat": 17.3220772,
    "lng": 78.64412910000001
  },
  {
    "location": "Hi Tech City",
    "lat": 17.4434646,
    "lng": 78.3771953
  },
  {
    "location": "Mankhal",
    "lat": 17.2013717,
    "lng": 78.46809019999999
  },
  {
    "location": "Manchirevula",
    "lat": 17.3727683,
    "lng": 78.3498129
  },
  {
    "location": "Vivekanand Nagar",
    "lat": 17.3642896,
    "lng": 78.52988069999999
  },
  {
    "location": "Gandamguda",
    "lat": 17.3701483,
    "lng": 78.3841977
  },
  {
    "location": "Gopanapalli",
    "lat": 17.451398,
    "lng": 78.30924259999999
  },
  {
    "location": "Chandrayangutta",
    "lat": 17.3050874,
    "lng": 78.4743396
  },
  {
    "location": "Mailardevpally",
    "lat": 17.3184713,
    "lng": 78.4519262
  },
  {
    "location": "Velly View Enclave",
    "lat": 17.3501007,
    "lng": 78.3984423
  },
  {
    "location": "Thummaloor",
    "lat": 17.1158077,
    "lng": 78.4723528
  },
  {
    "location": "Gurram Guda",
    "lat": 17.2944532,
    "lng": 78.5665236
  },
  {
    "location": "Turkayamjal",
    "lat": 17.27139,
    "lng": 78.5781119
  },
  {
    "location": "Balapur",
    "lat": 17.3088602,
    "lng": 78.50623619999999
  },
  {
    "location": "Kothaguda",
    "lat": 17.4643489,
    "lng": 78.3755955
  },
  {
    "location": "Appa Junction",
    "lat": 17.34972,
    "lng": 78.360263
  },
  {
    "location": "Masoorabad",
    "lat": 17.3426508,
    "lng": 78.5734931
  },
  {
    "location": "Madeenaguda",
    "lat": 17.4936856,
    "lng": 78.3401293
  },
  {
    "location": "Chegur",
    "lat": 17.175826,
    "lng": 78.2291018
  },
  {
    "location": "Chevella",
    "lat": 17.3133907,
    "lng": 78.139324
  },
  {
    "location": "Peerancheru",
    "lat": 17.3585811,
    "lng": 78.3773928
  },
  {
    "location": "Ammenpur",
    "lat": 17.5171428,
    "lng": 78.315742
  },
  {
    "location": "Peeramcheru",
    "lat": 17.3585811,
    "lng": 78.3773928
  },
  {
    "location": "Durga Nagar Colony",
    "lat": 17.4268884,
    "lng": 78.4545907
  },
  {
    "location": "Jawahar Colony",
    "lat": 17.4983294,
    "lng": 78.32021
  },
  {
    "location": "Hastinapuram",
    "lat": 17.3168305,
    "lng": 78.5512713
  },
  {
    "location": "Mamidipally",
    "lat": 17.2541312,
    "lng": 78.4496168
  },
  {
    "location": "Kranthi Nagar",
    "lat": 17.339541,
    "lng": 78.52988069999999
  },
  {
    "location": "Neknampur",
    "lat": 17.3858283,
    "lng": 78.3729053
  },
  {
    "location": "Amistapur",
    "lat": 17.406498,
    "lng": 78.47724389999999
  },
  {
    "location": "Khairatabad",
    "lat": 17.4105858,
    "lng": 78.4652316
  },
  {
    "location": "Mansanpally",
    "lat": 17.138799,
    "lng": 78.3928746
  },
  {
    "location": "Sirigiripur",
    "lat": 17.1541418,
    "lng": 78.43937989999999
  },
  {
    "location": "Khanapur",
    "lat": 17.3999485,
    "lng": 78.3009597
  },
  {
    "location": "Alkapur Main Road",
    "lat": 17.3890863,
    "lng": 78.3712741
  },
  {
    "location": "Manjeera Pipeline Road",
    "lat": 17.4890717,
    "lng": 78.3463172
  },
  {
    "location": "Munganoor",
    "lat": 17.3026602,
    "lng": 78.610081
  },
  {
    "location": "Kadthal",
    "lat": 17.406498,
    "lng": 78.47724389999999
  },
  {
    "location": "Badangpet",
    "lat": 17.3052765,
    "lng": 78.5253226
  },
  {
    "location": "Chintalakunta",
    "lat": 17.3417641,
    "lng": 78.5524054
  },
  {
    "location": "Kongara Kalan",
    "lat": 17.2002832,
    "lng": 78.5504691
  },
  {
    "location": "Almasguda",
    "lat": 17.3125498,
    "lng": 78.53632879999999
  },
  {
    "location": "Upperpally",
    "lat": 17.3602439,
    "lng": 78.4180484
  },
  {
    "location": "Abhyudaya Nagar",
    "lat": 17.345703,
    "lng": 78.3826855
  },
  {
    "location": "Kaushalyam Colony",
    "lat": 17.406498,
    "lng": 78.47724389999999
  },
  {
    "location": "Mughal Colony",
    "lat": 17.3188417,
    "lng": 78.4489062
  },
  {
    "location": "Hastinapuram Central",
    "lat": 17.3304971,
    "lng": 78.5497592
  },
  {
    "location": "Sahebnagar Kalan",
    "lat": 17.3206466,
    "lng": 78.5809891
  },
  {
    "location": "Aramghar X Roads",
    "lat": 17.321325,
    "lng": 78.43214499999999
  },
  {
    "location": "Abdullapurmet",
    "lat": 17.3100943,
    "lng": 78.68613909999999
  },
  {
    "location": "Sai Colony",
    "lat": 17.324942,
    "lng": 78.6051147
  },
  {
    "location": "Hanuman Nagar",
    "lat": 17.4180092,
    "lng": 78.5902143
  },
  {
    "location": "Saheb Nagar",
    "lat": 17.3206466,
    "lng": 78.5809891
  },
  {
    "location": "Saroor Nagar",
    "lat": 17.3529457,
    "lng": 78.5356595
  },
  {
    "location": "Budwel",
    "lat": 17.3343684,
    "lng": 78.40646869999999
  },
  {
    "location": "Bongloor",
    "lat": 17.2313137,
    "lng": 78.58912699999999
  },
  {
    "location": "Kandukur",
    "lat": 17.406498,
    "lng": 78.47724389999999
  },
  {
    "location": "Makanas Maarvel Aura, Hyderabad",
    "lat": 17.5340455,
    "lng": 78.5129805
  },
  {
    "location": "PRANATHIS KIARA, Hyderabad",
    "lat": 17.4611652,
    "lng": 78.2624087
  },
  {
    "location": "Raaga, Hyderabad",
    "lat": 17.3614655,
    "lng": 78.4282526
  },
  {
    "location": "Thimu Kings Court Block B, Hyderabad",
    "lat": 17.554026,
    "lng": 78.468983
  },
  {
    "location": "ghr callisto, Hyderabad",
    "lat": 17.4295357,
    "lng": 78.2503313
  },
  {
    "location": "vilaasam - ii, Hyderabad",
    "lat": 17.5159836,
    "lng": 78.3213076
  },
  {
    "location": "Speed Signature Towers, Hyderabad",
    "lat": 17.5029157,
    "lng": 78.3908337
  },
  {
    "location": "pinnacle, Hyderabad",
    "lat": 17.406498,
    "lng": 78.47724389999999
  },
  {
    "location": "VASAVI ATLANTIS, Hyderabad",
    "lat": 17.3953673,
    "lng": 78.3578091
  },
  {
    "location": "Skyler, Hyderabad",
    "lat": 17.406498,
    "lng": 78.47724389999999
  },
  {
    "location": "HALLMARK ALTUS, Hyderabad",
    "lat": 17.4843816,
    "lng": 78.33602800000001
  },
  {
    "location": "VAISHNAOI SOUTHWOODS, Hyderabad",
    "lat": 17.2546971,
    "lng": 78.4507381
  },
  {
    "location": "Divyadeep Kuteer IV, Hyderabad",
    "lat": 17.406498,
    "lng": 78.47724389999999
  },
  {
    "location": "sansa county sector ii, Hyderabad",
    "lat": 17.5925742,
    "lng": 78.2683212
  }
]